var pop_cities={
"type": "FeatureCollection",
"crs": { "type": "name", "properties": { "name": "urn:ogc:def:crs:OGC:1.3:CRS84" } },
"features": [
{ "type": "Feature", "properties": { "City_name": "Herat", "a2020": 605575.0 }, "geometry": { "type": "Point", "coordinates": [ 62.19967, 34.34817 ] } },
{ "type": "Feature", "properties": { "City_name": "Kabul", "a2020": 4221532.0 }, "geometry": { "type": "Point", "coordinates": [ 69.17246, 34.528887 ] } },
{ "type": "Feature", "properties": { "City_name": "Kandahar", "a2020": 498002.0 }, "geometry": { "type": "Point", "coordinates": [ 65.71013, 31.61332 ] } },
{ "type": "Feature", "properties": { "City_name": "Mazar-e Sharif", "a2020": 532689.0 }, "geometry": { "type": "Point", "coordinates": [ 67.11087, 36.70904 ] } },
{ "type": "Feature", "properties": { "City_name": "Tiranë (Tirana)", "a2020": 493712.0 }, "geometry": { "type": "Point", "coordinates": [ 19.81889, 41.3275 ] } },
{ "type": "Feature", "properties": { "City_name": "Annaba", "a2020": 358241.0 }, "geometry": { "type": "Point", "coordinates": [ 7.76667, 36.9 ] } },
{ "type": "Feature", "properties": { "City_name": "Batna", "a2020": 329333.0 }, "geometry": { "type": "Point", "coordinates": [ 6.17414, 35.55597 ] } },
{ "type": "Feature", "properties": { "City_name": "Blida", "a2020": 472733.0 }, "geometry": { "type": "Point", "coordinates": [ 2.831943, 36.480781 ] } },
{ "type": "Feature", "properties": { "City_name": "El Djazaïr  (Algiers)", "a2020": 2767661.0 }, "geometry": { "type": "Point", "coordinates": [ 3.04197, 36.7525 ] } },
{ "type": "Feature", "properties": { "City_name": "El Djelfa", "a2020": 503397.0 }, "geometry": { "type": "Point", "coordinates": [ 3.263, 34.67279 ] } },
{ "type": "Feature", "properties": { "City_name": "Qacentina", "a2020": 414011.0 }, "geometry": { "type": "Point", "coordinates": [ 6.607293, 36.354921 ] } },
{ "type": "Feature", "properties": { "City_name": "Sétif", "a2020": 313401.0 }, "geometry": { "type": "Point", "coordinates": [ 5.41373, 36.19112 ] } },
{ "type": "Feature", "properties": { "City_name": "Wahran (Oran)", "a2020": 899182.0 }, "geometry": { "type": "Point", "coordinates": [ -0.64167, 35.69111 ] } },
{ "type": "Feature", "properties": { "City_name": "Benguela", "a2020": 715130.0 }, "geometry": { "type": "Point", "coordinates": [ 13.405, -12.576 ] } },
{ "type": "Feature", "properties": { "City_name": "Cabinda", "a2020": 777697.0 }, "geometry": { "type": "Point", "coordinates": [ 12.2, -5.55 ] } },
{ "type": "Feature", "properties": { "City_name": "Cuito", "a2020": 535407.0 }, "geometry": { "type": "Point", "coordinates": [ 16.933, -12.383 ] } },
{ "type": "Feature", "properties": { "City_name": "Huambo", "a2020": 671413.0 }, "geometry": { "type": "Point", "coordinates": [ 15.73917, -12.77611 ] } },
{ "type": "Feature", "properties": { "City_name": "Lobito", "a2020": 426310.0 }, "geometry": { "type": "Point", "coordinates": [ 13.536, -12.364 ] } },
{ "type": "Feature", "properties": { "City_name": "Luanda", "a2020": 8329798.0 }, "geometry": { "type": "Point", "coordinates": [ 13.23432, -8.83682 ] } },
{ "type": "Feature", "properties": { "City_name": "Lubango", "a2020": 828248.0 }, "geometry": { "type": "Point", "coordinates": [ 13.4925, -14.91717 ] } },
{ "type": "Feature", "properties": { "City_name": "Malanje", "a2020": 665150.0 }, "geometry": { "type": "Point", "coordinates": [ 16.341, -9.54 ] } },
{ "type": "Feature", "properties": { "City_name": "Uige", "a2020": 510631.0 }, "geometry": { "type": "Point", "coordinates": [ 15.4406, -7.1069 ] } },
{ "type": "Feature", "properties": { "City_name": "Bahia Blanca", "a2020": 315533.0 }, "geometry": { "type": "Point", "coordinates": [ -62.27243, -38.7196 ] } },
{ "type": "Feature", "properties": { "City_name": "Buenos Aires", "a2020": 15153729.0 }, "geometry": { "type": "Point", "coordinates": [ -58.400368, -34.605083 ] } },
{ "type": "Feature", "properties": { "City_name": "Córdoba", "a2020": 1571944.0 }, "geometry": { "type": "Point", "coordinates": [ -64.18105, -31.4135 ] } },
{ "type": "Feature", "properties": { "City_name": "Corrientes", "a2020": 407725.0 }, "geometry": { "type": "Point", "coordinates": [ -58.8341, -27.4806 ] } },
{ "type": "Feature", "properties": { "City_name": "La Plata", "a2020": 884054.0 }, "geometry": { "type": "Point", "coordinates": [ -57.95453, -34.92145 ] } },
{ "type": "Feature", "properties": { "City_name": "Mar Del Plata", "a2020": 665707.0 }, "geometry": { "type": "Point", "coordinates": [ -57.55754, -38.00228 ] } },
{ "type": "Feature", "properties": { "City_name": "Mendoza", "a2020": 1172619.0 }, "geometry": { "type": "Point", "coordinates": [ -68.82717, -32.89084 ] } },
{ "type": "Feature", "properties": { "City_name": "Neuquén-Plottier-Cipolletti", "a2020": 408609.0 }, "geometry": { "type": "Point", "coordinates": [ -68.064809, -38.95143 ] } },
{ "type": "Feature", "properties": { "City_name": "Posadas", "a2020": 388782.0 }, "geometry": { "type": "Point", "coordinates": [ -55.89608, -27.36708 ] } },
{ "type": "Feature", "properties": { "City_name": "Resistencia", "a2020": 432250.0 }, "geometry": { "type": "Point", "coordinates": [ -58.98389, -27.46056 ] } },
{ "type": "Feature", "properties": { "City_name": "Rosario", "a2020": 1532128.0 }, "geometry": { "type": "Point", "coordinates": [ -60.63932, -32.94682 ] } },
{ "type": "Feature", "properties": { "City_name": "Salta", "a2020": 684751.0 }, "geometry": { "type": "Point", "coordinates": [ -65.41166, -24.7859 ] } },
{ "type": "Feature", "properties": { "City_name": "San Juan", "a2020": 536913.0 }, "geometry": { "type": "Point", "coordinates": [ -68.53639, -31.5375 ] } },
{ "type": "Feature", "properties": { "City_name": "San Miguel de Tucumán", "a2020": 985656.0 }, "geometry": { "type": "Point", "coordinates": [ -65.2226, -26.82414 ] } },
{ "type": "Feature", "properties": { "City_name": "San Salvador de Jujuy", "a2020": 361106.0 }, "geometry": { "type": "Point", "coordinates": [ -65.29712, -24.19456 ] } },
{ "type": "Feature", "properties": { "City_name": "Santa Fe", "a2020": 562917.0 }, "geometry": { "type": "Point", "coordinates": [ -60.698281, -31.632717 ] } },
{ "type": "Feature", "properties": { "City_name": "Santiago Del Estero", "a2020": 435567.0 }, "geometry": { "type": "Point", "coordinates": [ -64.26149, -27.79511 ] } },
{ "type": "Feature", "properties": { "City_name": "Yerevan", "a2020": 1086275.0 }, "geometry": { "type": "Point", "coordinates": [ 44.514619, 40.181998 ] } },
{ "type": "Feature", "properties": { "City_name": "Adelaide", "a2020": 1336403.0 }, "geometry": { "type": "Point", "coordinates": [ 138.59863, -34.92866 ] } },
{ "type": "Feature", "properties": { "City_name": "Brisbane", "a2020": 2406182.0 }, "geometry": { "type": "Point", "coordinates": [ 153.02809, -27.46794 ] } },
{ "type": "Feature", "properties": { "City_name": "Canberra", "a2020": 457330.0 }, "geometry": { "type": "Point", "coordinates": [ 149.12807, -35.28346 ] } },
{ "type": "Feature", "properties": { "City_name": "Central Coast", "a2020": 334922.0 }, "geometry": { "type": "Point", "coordinates": [ 151.39583, -33.42 ] } },
{ "type": "Feature", "properties": { "City_name": "Gold Coast-Tweed Head", "a2020": 699226.0 }, "geometry": { "type": "Point", "coordinates": [ 153.430880000000116, -28.00029 ] } },
{ "type": "Feature", "properties": { "City_name": "Melbourne", "a2020": 4967733.0 }, "geometry": { "type": "Point", "coordinates": [ 144.96332, -37.814 ] } },
{ "type": "Feature", "properties": { "City_name": "Newcastle-Maitland", "a2020": 450360.0 }, "geometry": { "type": "Point", "coordinates": [ 151.740852, -32.924878 ] } },
{ "type": "Feature", "properties": { "City_name": "Perth", "a2020": 2041959.0 }, "geometry": { "type": "Point", "coordinates": [ 115.852514, -31.947841 ] } },
{ "type": "Feature", "properties": { "City_name": "Sunshine Coast", "a2020": 346829.0 }, "geometry": { "type": "Point", "coordinates": [ 153.09953, -26.66008 ] } },
{ "type": "Feature", "properties": { "City_name": "Sydney", "a2020": 4925987.0 }, "geometry": { "type": "Point", "coordinates": [ 151.20732, -33.86785 ] } },
{ "type": "Feature", "properties": { "City_name": "Wollongong", "a2020": 305329.0 }, "geometry": { "type": "Point", "coordinates": [ 150.89345, -34.424 ] } },
{ "type": "Feature", "properties": { "City_name": "Wien (Vienna)", "a2020": 1929944.0 }, "geometry": { "type": "Point", "coordinates": [ 16.370725, 48.206443 ] } },
{ "type": "Feature", "properties": { "City_name": "Baku", "a2020": 2341443.0 }, "geometry": { "type": "Point", "coordinates": [ 49.89201, 40.37767 ] } },
{ "type": "Feature", "properties": { "City_name": "Gäncä", "a2020": 340912.0 }, "geometry": { "type": "Point", "coordinates": [ 46.36056, 40.68278 ] } },
{ "type": "Feature", "properties": { "City_name": "Sumquayit", "a2020": 354086.0 }, "geometry": { "type": "Point", "coordinates": [ 49.66861, 40.58972 ] } },
{ "type": "Feature", "properties": { "City_name": "Al-Manamah (Manama)", "a2020": 634508.0 }, "geometry": { "type": "Point", "coordinates": [ 50.5832, 26.21536 ] } },
{ "type": "Feature", "properties": { "City_name": "Barisal", "a2020": 483506.0 }, "geometry": { "type": "Point", "coordinates": [ 90.37111, 22.70194 ] } },
{ "type": "Feature", "properties": { "City_name": "Bogra", "a2020": 775034.0 }, "geometry": { "type": "Point", "coordinates": [ 89.36667, 24.85 ] } },
{ "type": "Feature", "properties": { "City_name": "Chittagong", "a2020": 5019824.0 }, "geometry": { "type": "Point", "coordinates": [ 91.83639, 22.33306 ] } },
{ "type": "Feature", "properties": { "City_name": "Comilla", "a2020": 588772.0 }, "geometry": { "type": "Point", "coordinates": [ 91.20444, 23.45778 ] } },
{ "type": "Feature", "properties": { "City_name": "Dhaka", "a2020": 21005860.0 }, "geometry": { "type": "Point", "coordinates": [ 90.40744, 23.7104 ] } },
{ "type": "Feature", "properties": { "City_name": "Khulna", "a2020": 953745.0 }, "geometry": { "type": "Point", "coordinates": [ 89.56439, 22.80978 ] } },
{ "type": "Feature", "properties": { "City_name": "Mymensingh", "a2020": 459983.0 }, "geometry": { "type": "Point", "coordinates": [ 90.4, 24.75 ] } },
{ "type": "Feature", "properties": { "City_name": "Rajshahi", "a2020": 907732.0 }, "geometry": { "type": "Point", "coordinates": [ 88.6, 24.36667 ] } },
{ "type": "Feature", "properties": { "City_name": "Rangpur", "a2020": 406956.0 }, "geometry": { "type": "Point", "coordinates": [ 89.25, 25.75 ] } },
{ "type": "Feature", "properties": { "City_name": "Rupganj", "a2020": 481718.0 }, "geometry": { "type": "Point", "coordinates": [ 90.520591, 23.792554 ] } },
{ "type": "Feature", "properties": { "City_name": "Sylhet", "a2020": 851808.0 }, "geometry": { "type": "Point", "coordinates": [ 91.87167, 24.89667 ] } },
{ "type": "Feature", "properties": { "City_name": "Brest", "a2020": 358587.0 }, "geometry": { "type": "Point", "coordinates": [ 23.68775, 52.09755 ] } },
{ "type": "Feature", "properties": { "City_name": "Gomel", "a2020": 557589.0 }, "geometry": { "type": "Point", "coordinates": [ 30.9754, 52.4345 ] } },
{ "type": "Feature", "properties": { "City_name": "Grodno", "a2020": 386787.0 }, "geometry": { "type": "Point", "coordinates": [ 23.8258, 53.6884 ] } },
{ "type": "Feature", "properties": { "City_name": "Minsk", "a2020": 2028104.0 }, "geometry": { "type": "Point", "coordinates": [ 27.56667, 53.9 ] } },
{ "type": "Feature", "properties": { "City_name": "Mogilev", "a2020": 388465.0 }, "geometry": { "type": "Point", "coordinates": [ 30.33764, 53.9141 ] } },
{ "type": "Feature", "properties": { "City_name": "Vitebsk", "a2020": 377966.0 }, "geometry": { "type": "Point", "coordinates": [ 30.2033, 55.19048 ] } },
{ "type": "Feature", "properties": { "City_name": "Antwerpen", "a2020": 1042471.0 }, "geometry": { "type": "Point", "coordinates": [ 4.40346, 51.21989 ] } },
{ "type": "Feature", "properties": { "City_name": "Bruxelles-Brussel", "a2020": 2080788.0 }, "geometry": { "type": "Point", "coordinates": [ 4.349919, 50.846735 ] } },
{ "type": "Feature", "properties": { "City_name": "Charleroi", "a2020": 413429.0 }, "geometry": { "type": "Point", "coordinates": [ 4.44448, 50.41136 ] } },
{ "type": "Feature", "properties": { "City_name": "Gent", "a2020": 466412.0 }, "geometry": { "type": "Point", "coordinates": [ 3.71667, 51.05 ] } },
{ "type": "Feature", "properties": { "City_name": "Liège", "a2020": 677589.0 }, "geometry": { "type": "Point", "coordinates": [ 5.56749, 50.63373 ] } },
{ "type": "Feature", "properties": { "City_name": "Abomey-Calavi", "a2020": 1056440.0 }, "geometry": { "type": "Point", "coordinates": [ 2.35566, 6.44852 ] } },
{ "type": "Feature", "properties": { "City_name": "Cotonou", "a2020": 691949.0 }, "geometry": { "type": "Point", "coordinates": [ 2.41833, 6.36536 ] } },
{ "type": "Feature", "properties": { "City_name": "Djougou", "a2020": 343419.0 }, "geometry": { "type": "Point", "coordinates": [ 1.66598, 9.70853 ] } },
{ "type": "Feature", "properties": { "City_name": "Parakou", "a2020": 357912.0 }, "geometry": { "type": "Point", "coordinates": [ 2.63031, 9.33716 ] } },
{ "type": "Feature", "properties": { "City_name": "Cochabamba", "a2020": 1303907.0 }, "geometry": { "type": "Point", "coordinates": [ -66.1568, -17.3895 ] } },
{ "type": "Feature", "properties": { "City_name": "La Paz", "a2020": 1857797.0 }, "geometry": { "type": "Point", "coordinates": [ -68.15, -16.5 ] } },
{ "type": "Feature", "properties": { "City_name": "Oruro", "a2020": 318022.0 }, "geometry": { "type": "Point", "coordinates": [ -67.15, -17.98333 ] } },
{ "type": "Feature", "properties": { "City_name": "Santa Cruz", "a2020": 1712688.0 }, "geometry": { "type": "Point", "coordinates": [ -63.169825, -17.79891 ] } },
{ "type": "Feature", "properties": { "City_name": "Sarajevo", "a2020": 343089.0 }, "geometry": { "type": "Point", "coordinates": [ 18.35644, 43.84864 ] } },
{ "type": "Feature", "properties": { "City_name": "Anápolis", "a2020": 384679.0 }, "geometry": { "type": "Point", "coordinates": [ -48.95278, -16.32667 ] } },
{ "type": "Feature", "properties": { "City_name": "Aracaju", "a2020": 1009380.0 }, "geometry": { "type": "Point", "coordinates": [ -37.07167, -10.91111 ] } },
{ "type": "Feature", "properties": { "City_name": "Baixada Santista", "a2020": 1892314.0 }, "geometry": { "type": "Point", "coordinates": [ -46.326609, -23.957 ] } },
{ "type": "Feature", "properties": { "City_name": "Bauru", "a2020": 375733.0 }, "geometry": { "type": "Point", "coordinates": [ -49.06056, -22.31472 ] } },
{ "type": "Feature", "properties": { "City_name": "Belém", "a2020": 2334462.0 }, "geometry": { "type": "Point", "coordinates": [ -48.478988, -1.456142 ] } },
{ "type": "Feature", "properties": { "City_name": "Belo Horizonte", "a2020": 6084430.0 }, "geometry": { "type": "Point", "coordinates": [ -43.93778, -19.92083 ] } },
{ "type": "Feature", "properties": { "City_name": "Blumenau", "a2020": 347831.0 }, "geometry": { "type": "Point", "coordinates": [ -49.06611, -26.91944 ] } },
{ "type": "Feature", "properties": { "City_name": "Boa Vista", "a2020": 344307.0 }, "geometry": { "type": "Point", "coordinates": [ -60.67333, 2.81972 ] } },
{ "type": "Feature", "properties": { "City_name": "Brasília", "a2020": 4645843.0 }, "geometry": { "type": "Point", "coordinates": [ -47.92972, -15.77972 ] } },
{ "type": "Feature", "properties": { "City_name": "Campina Grande", "a2020": 399758.0 }, "geometry": { "type": "Point", "coordinates": [ -35.88111, -7.23056 ] } },
{ "type": "Feature", "properties": { "City_name": "Campinas", "a2020": 3300794.0 }, "geometry": { "type": "Point", "coordinates": [ -47.065587, -22.910942 ] } },
{ "type": "Feature", "properties": { "City_name": "Campo Grande", "a2020": 896864.0 }, "geometry": { "type": "Point", "coordinates": [ -54.618515, -20.456697 ] } },
{ "type": "Feature", "properties": { "City_name": "Campos dos Goytacazes", "a2020": 451055.0 }, "geometry": { "type": "Point", "coordinates": [ -41.319567, -21.766369 ] } },
{ "type": "Feature", "properties": { "City_name": "Caruaru", "a2020": 331175.0 }, "geometry": { "type": "Point", "coordinates": [ -35.97611, -8.28333 ] } },
{ "type": "Feature", "properties": { "City_name": "Cascavel", "a2020": 314244.0 }, "geometry": { "type": "Point", "coordinates": [ -53.45528, -24.95583 ] } },
{ "type": "Feature", "properties": { "City_name": "Caxias Do Sul", "a2020": 483770.0 }, "geometry": { "type": "Point", "coordinates": [ -51.17944, -29.16806 ] } },
{ "type": "Feature", "properties": { "City_name": "Cuiabá", "a2020": 588566.0 }, "geometry": { "type": "Point", "coordinates": [ -56.09667, -15.59611 ] } },
{ "type": "Feature", "properties": { "City_name": "Curitiba", "a2020": 3678732.0 }, "geometry": { "type": "Point", "coordinates": [ -49.27306, -25.42778 ] } },
{ "type": "Feature", "properties": { "City_name": "Feira De Santana", "a2020": 602128.0 }, "geometry": { "type": "Point", "coordinates": [ -38.96667, -12.26667 ] } },
{ "type": "Feature", "properties": { "City_name": "Florianópolis", "a2020": 1239331.0 }, "geometry": { "type": "Point", "coordinates": [ -48.54917, -27.59667 ] } },
{ "type": "Feature", "properties": { "City_name": "Fortaleza", "a2020": 4073465.0 }, "geometry": { "type": "Point", "coordinates": [ -38.543575, -3.74117 ] } },
{ "type": "Feature", "properties": { "City_name": "Franca", "a2020": 351926.0 }, "geometry": { "type": "Point", "coordinates": [ -47.40083, -20.53861 ] } },
{ "type": "Feature", "properties": { "City_name": "Goiânia", "a2020": 2690011.0 }, "geometry": { "type": "Point", "coordinates": [ -49.25389, -16.67861 ] } },
{ "type": "Feature", "properties": { "City_name": "Grande São Luís", "a2020": 1485763.0 }, "geometry": { "type": "Point", "coordinates": [ -44.283186, -2.538539 ] } },
{ "type": "Feature", "properties": { "City_name": "Grande Vitória", "a2020": 2075857.0 }, "geometry": { "type": "Point", "coordinates": [ -40.307915, -20.305424 ] } },
{ "type": "Feature", "properties": { "City_name": "João Pessoa", "a2020": 1378249.0 }, "geometry": { "type": "Point", "coordinates": [ -34.86306, -7.115 ] } },
{ "type": "Feature", "properties": { "City_name": "Joinville", "a2020": 1303141.0 }, "geometry": { "type": "Point", "coordinates": [ -48.84556, -26.30444 ] } },
{ "type": "Feature", "properties": { "City_name": "Juazeiro Do Norte", "a2020": 461342.0 }, "geometry": { "type": "Point", "coordinates": [ -39.31528, -7.21306 ] } },
{ "type": "Feature", "properties": { "City_name": "Juiz De Fora", "a2020": 575481.0 }, "geometry": { "type": "Point", "coordinates": [ -43.35028, -21.76417 ] } },
{ "type": "Feature", "properties": { "City_name": "Jundiaí", "a2020": 678521.0 }, "geometry": { "type": "Point", "coordinates": [ -46.891347, -23.188254 ] } },
{ "type": "Feature", "properties": { "City_name": "Londrina", "a2020": 885516.0 }, "geometry": { "type": "Point", "coordinates": [ -51.16278, -23.31028 ] } },
{ "type": "Feature", "properties": { "City_name": "Macapá", "a2020": 486424.0 }, "geometry": { "type": "Point", "coordinates": [ -51.06639, 0.03889 ] } },
{ "type": "Feature", "properties": { "City_name": "Maceió", "a2020": 1323039.0 }, "geometry": { "type": "Point", "coordinates": [ -35.73528, -9.66583 ] } },
{ "type": "Feature", "properties": { "City_name": "Manaus", "a2020": 2260788.0 }, "geometry": { "type": "Point", "coordinates": [ -60.025, -3.10194 ] } },
{ "type": "Feature", "properties": { "City_name": "Maringá", "a2020": 419993.0 }, "geometry": { "type": "Point", "coordinates": [ -51.93861, -23.42528 ] } },
{ "type": "Feature", "properties": { "City_name": "Montes Claros", "a2020": 397815.0 }, "geometry": { "type": "Point", "coordinates": [ -43.86167, -16.735 ] } },
{ "type": "Feature", "properties": { "City_name": "Natal", "a2020": 1456844.0 }, "geometry": { "type": "Point", "coordinates": [ -35.20944, -5.795 ] } },
{ "type": "Feature", "properties": { "City_name": "Pelotas", "a2020": 326241.0 }, "geometry": { "type": "Point", "coordinates": [ -52.3425, -31.77194 ] } },
{ "type": "Feature", "properties": { "City_name": "Petrolina", "a2020": 477235.0 }, "geometry": { "type": "Point", "coordinates": [ -40.50083, -9.39861 ] } },
{ "type": "Feature", "properties": { "City_name": "Piracicaba", "a2020": 401095.0 }, "geometry": { "type": "Point", "coordinates": [ -47.64917, -22.72528 ] } },
{ "type": "Feature", "properties": { "City_name": "Ponta Grossa", "a2020": 349363.0 }, "geometry": { "type": "Point", "coordinates": [ -50.16194, -25.095 ] } },
{ "type": "Feature", "properties": { "City_name": "Pôrto Alegre", "a2020": 4137418.0 }, "geometry": { "type": "Point", "coordinates": [ -51.23, -30.03306 ] } },
{ "type": "Feature", "properties": { "City_name": "Pôrto Velho", "a2020": 510419.0 }, "geometry": { "type": "Point", "coordinates": [ -63.90389, -8.76194 ] } },
{ "type": "Feature", "properties": { "City_name": "Recife", "a2020": 4127092.0 }, "geometry": { "type": "Point", "coordinates": [ -34.88111, -8.05389 ] } },
{ "type": "Feature", "properties": { "City_name": "Ribeirão  Preto", "a2020": 714111.0 }, "geometry": { "type": "Point", "coordinates": [ -47.81028, -21.1775 ] } },
{ "type": "Feature", "properties": { "City_name": "Rio Branco", "a2020": 370129.0 }, "geometry": { "type": "Point", "coordinates": [ -67.81, -9.97472 ] } },
{ "type": "Feature", "properties": { "City_name": "Rio de Janeiro", "a2020": 13458075.0 }, "geometry": { "type": "Point", "coordinates": [ -43.2075, -22.90278 ] } },
{ "type": "Feature", "properties": { "City_name": "Salvador", "a2020": 3839076.0 }, "geometry": { "type": "Point", "coordinates": [ -38.51083, -12.97111 ] } },
{ "type": "Feature", "properties": { "City_name": "São José do Rio Preto", "a2020": 439018.0 }, "geometry": { "type": "Point", "coordinates": [ -49.37944, -20.81972 ] } },
{ "type": "Feature", "properties": { "City_name": "São José dos Campos", "a2020": 721795.0 }, "geometry": { "type": "Point", "coordinates": [ -45.88694, -23.17944 ] } },
{ "type": "Feature", "properties": { "City_name": "São Paulo", "a2020": 22043028.0 }, "geometry": { "type": "Point", "coordinates": [ -46.63611, -23.5475 ] } },
{ "type": "Feature", "properties": { "City_name": "Sorocaba", "a2020": 785997.0 }, "geometry": { "type": "Point", "coordinates": [ -47.45806, -23.50167 ] } },
{ "type": "Feature", "properties": { "City_name": "Taubaté", "a2020": 312617.0 }, "geometry": { "type": "Point", "coordinates": [ -45.55528, -23.02639 ] } },
{ "type": "Feature", "properties": { "City_name": "Teresina", "a2020": 1021229.0 }, "geometry": { "type": "Point", "coordinates": [ -42.80194, -5.08917 ] } },
{ "type": "Feature", "properties": { "City_name": "Uberaba", "a2020": 333487.0 }, "geometry": { "type": "Point", "coordinates": [ -47.93194, -19.74833 ] } },
{ "type": "Feature", "properties": { "City_name": "Uberlândia", "a2020": 686896.0 }, "geometry": { "type": "Point", "coordinates": [ -48.27722, -18.91861 ] } },
{ "type": "Feature", "properties": { "City_name": "Vale do Aço", "a2020": 521744.0 }, "geometry": { "type": "Point", "coordinates": [ -43.935443, -19.940497 ] } },
{ "type": "Feature", "properties": { "City_name": "Vitória da Conquista", "a2020": 327672.0 }, "geometry": { "type": "Point", "coordinates": [ -40.83944, -14.86611 ] } },
{ "type": "Feature", "properties": { "City_name": "Volta Redonda", "a2020": 445226.0 }, "geometry": { "type": "Point", "coordinates": [ -44.10417, -22.52306 ] } },
{ "type": "Feature", "properties": { "City_name": "Plovdiv", "a2020": 346563.0 }, "geometry": { "type": "Point", "coordinates": [ 24.75, 42.15 ] } },
{ "type": "Feature", "properties": { "City_name": "Sofia", "a2020": 1280968.0 }, "geometry": { "type": "Point", "coordinates": [ 23.32415, 42.69751 ] } },
{ "type": "Feature", "properties": { "City_name": "Varna", "a2020": 335068.0 }, "geometry": { "type": "Point", "coordinates": [ 27.91667, 43.21667 ] } },
{ "type": "Feature", "properties": { "City_name": "Bobo-Dioulasso", "a2020": 972124.0 }, "geometry": { "type": "Point", "coordinates": [ -4.2979, 11.17715 ] } },
{ "type": "Feature", "properties": { "City_name": "Ouagadougou", "a2020": 2780331.0 }, "geometry": { "type": "Point", "coordinates": [ -1.53834, 12.36423 ] } },
{ "type": "Feature", "properties": { "City_name": "Bujumbura", "a2020": 1012996.0 }, "geometry": { "type": "Point", "coordinates": [ 29.3644, -3.3822 ] } },
{ "type": "Feature", "properties": { "City_name": "Phnum Pénh (Phnom Penh)", "a2020": 2077757.0 }, "geometry": { "type": "Point", "coordinates": [ 104.91601, 11.56245 ] } },
{ "type": "Feature", "properties": { "City_name": "Bafoussam", "a2020": 423982.0 }, "geometry": { "type": "Point", "coordinates": [ 10.41786, 5.47366 ] } },
{ "type": "Feature", "properties": { "City_name": "Bamenda", "a2020": 533257.0 }, "geometry": { "type": "Point", "coordinates": [ 10.15824, 5.95266 ] } },
{ "type": "Feature", "properties": { "City_name": "Douala", "a2020": 3663227.0 }, "geometry": { "type": "Point", "coordinates": [ 9.70428, 4.04827 ] } },
{ "type": "Feature", "properties": { "City_name": "Garoua", "a2020": 345853.0 }, "geometry": { "type": "Point", "coordinates": [ 13.4, 9.3 ] } },
{ "type": "Feature", "properties": { "City_name": "Loum", "a2020": 497578.0 }, "geometry": { "type": "Point", "coordinates": [ 9.7351, 4.7182 ] } },
{ "type": "Feature", "properties": { "City_name": "Mbouda", "a2020": 485660.0 }, "geometry": { "type": "Point", "coordinates": [ 10.25517, 5.62578 ] } },
{ "type": "Feature", "properties": { "City_name": "Yaoundé", "a2020": 3992411.0 }, "geometry": { "type": "Point", "coordinates": [ 11.51667, 3.86667 ] } },
{ "type": "Feature", "properties": { "City_name": "Calgary", "a2020": 1547484.0 }, "geometry": { "type": "Point", "coordinates": [ -114.059314, 51.044072 ] } },
{ "type": "Feature", "properties": { "City_name": "Edmonton", "a2020": 1461182.0 }, "geometry": { "type": "Point", "coordinates": [ -113.503721, 53.543409 ] } },
{ "type": "Feature", "properties": { "City_name": "Halifax", "a2020": 412674.0 }, "geometry": { "type": "Point", "coordinates": [ -63.581778, 44.647712 ] } },
{ "type": "Feature", "properties": { "City_name": "Hamilton", "a2020": 766688.0 }, "geometry": { "type": "Point", "coordinates": [ -79.847539, 43.249459 ] } },
{ "type": "Feature", "properties": { "City_name": "Kitchener-Cambrigde-Waterloo", "a2020": 562466.0 }, "geometry": { "type": "Point", "coordinates": [ -80.5112, 43.42537 ] } },
{ "type": "Feature", "properties": { "City_name": "London", "a2020": 508230.0 }, "geometry": { "type": "Point", "coordinates": [ -81.23304, 42.98339 ] } },
{ "type": "Feature", "properties": { "City_name": "Montréal", "a2020": 4220566.0 }, "geometry": { "type": "Point", "coordinates": [ -73.58781, 45.50884 ] } },
{ "type": "Feature", "properties": { "City_name": "Oshawa", "a2020": 398459.0 }, "geometry": { "type": "Point", "coordinates": [ -78.84957, 43.90012 ] } },
{ "type": "Feature", "properties": { "City_name": "Ottawa-Gatineau", "a2020": 1393086.0 }, "geometry": { "type": "Point", "coordinates": [ -75.697997, 45.416598 ] } },
{ "type": "Feature", "properties": { "City_name": "Québec", "a2020": 826109.0 }, "geometry": { "type": "Point", "coordinates": [ -71.21454, 46.81228 ] } },
{ "type": "Feature", "properties": { "City_name": "Saskatoon", "a2020": 324721.0 }, "geometry": { "type": "Point", "coordinates": [ -106.63452, 52.11679 ] } },
{ "type": "Feature", "properties": { "City_name": "St. Catharines-Niagara", "a2020": 416049.0 }, "geometry": { "type": "Point", "coordinates": [ -79.24958, 43.16681 ] } },
{ "type": "Feature", "properties": { "City_name": "Toronto", "a2020": 6196731.0 }, "geometry": { "type": "Point", "coordinates": [ -79.4163, 43.70011 ] } },
{ "type": "Feature", "properties": { "City_name": "Vancouver", "a2020": 2581079.0 }, "geometry": { "type": "Point", "coordinates": [ -123.11934, 49.24966 ] } },
{ "type": "Feature", "properties": { "City_name": "Victoria", "a2020": 385999.0 }, "geometry": { "type": "Point", "coordinates": [ -123.3693, 48.4329 ] } },
{ "type": "Feature", "properties": { "City_name": "Windsor", "a2020": 336082.0 }, "geometry": { "type": "Point", "coordinates": [ -83.007948, 42.281051 ] } },
{ "type": "Feature", "properties": { "City_name": "Winnipeg", "a2020": 816593.0 }, "geometry": { "type": "Point", "coordinates": [ -97.129437, 49.895451 ] } },
{ "type": "Feature", "properties": { "City_name": "Bangui", "a2020": 889231.0 }, "geometry": { "type": "Point", "coordinates": [ 18.55496, 4.36122 ] } },
{ "type": "Feature", "properties": { "City_name": "N'Djaména", "a2020": 1422547.0 }, "geometry": { "type": "Point", "coordinates": [ 15.0444, 12.10672 ] } },
{ "type": "Feature", "properties": { "City_name": "Antofagasta", "a2020": 438871.0 }, "geometry": { "type": "Point", "coordinates": [ -70.4, -23.65 ] } },
{ "type": "Feature", "properties": { "City_name": "Concepción", "a2020": 880722.0 }, "geometry": { "type": "Point", "coordinates": [ -73.04977, -36.82699 ] } },
{ "type": "Feature", "properties": { "City_name": "La Serena-Coquimbo", "a2020": 483640.0 }, "geometry": { "type": "Point", "coordinates": [ -71.24894, -29.90453 ] } },
{ "type": "Feature", "properties": { "City_name": "Santiago", "a2020": 6767223.0 }, "geometry": { "type": "Point", "coordinates": [ -70.64827, -33.45694 ] } },
{ "type": "Feature", "properties": { "City_name": "Temuco", "a2020": 341951.0 }, "geometry": { "type": "Point", "coordinates": [ -72.6, -38.73333 ] } },
{ "type": "Feature", "properties": { "City_name": "Valparaíso", "a2020": 983751.0 }, "geometry": { "type": "Point", "coordinates": [ -71.62725, -33.03932 ] } },
{ "type": "Feature", "properties": { "City_name": "Akesu", "a2020": 413258.0 }, "geometry": { "type": "Point", "coordinates": [ 80.262646, 41.169547 ] } },
{ "type": "Feature", "properties": { "City_name": "Ankang", "a2020": 636293.0 }, "geometry": { "type": "Point", "coordinates": [ 109.029694, 32.691183 ] } },
{ "type": "Feature", "properties": { "City_name": "Anlu", "a2020": 342178.0 }, "geometry": { "type": "Point", "coordinates": [ 113.67833, 31.2575 ] } },
{ "type": "Feature", "properties": { "City_name": "Anning", "a2020": 317091.0 }, "geometry": { "type": "Point", "coordinates": [ 102.478401, 24.921072 ] } },
{ "type": "Feature", "properties": { "City_name": "Anqing", "a2020": 726950.0 }, "geometry": { "type": "Point", "coordinates": [ 117.0533, 30.542972 ] } },
{ "type": "Feature", "properties": { "City_name": "Anqiu", "a2020": 682299.0 }, "geometry": { "type": "Point", "coordinates": [ 119.192500000000109, 36.43417 ] } },
{ "type": "Feature", "properties": { "City_name": "Anshan", "a2020": 1629166.0 }, "geometry": { "type": "Point", "coordinates": [ 122.99, 41.12361 ] } },
{ "type": "Feature", "properties": { "City_name": "Anshun", "a2020": 600121.0 }, "geometry": { "type": "Point", "coordinates": [ 105.932401, 26.24441 ] } },
{ "type": "Feature", "properties": { "City_name": "Anyang", "a2020": 1460114.0 }, "geometry": { "type": "Point", "coordinates": [ 114.35034, 36.094436 ] } },
{ "type": "Feature", "properties": { "City_name": "Baicheng", "a2020": 332826.0 }, "geometry": { "type": "Point", "coordinates": [ 122.841797, 45.618331 ] } },
{ "type": "Feature", "properties": { "City_name": "Baishan", "a2020": 821967.0 }, "geometry": { "type": "Point", "coordinates": [ 126.422863, 41.937333 ] } },
{ "type": "Feature", "properties": { "City_name": "Baiyin", "a2020": 404637.0 }, "geometry": { "type": "Point", "coordinates": [ 104.183117, 36.548652 ] } },
{ "type": "Feature", "properties": { "City_name": "Baoding", "a2020": 1975790.0 }, "geometry": { "type": "Point", "coordinates": [ 115.49028, 38.85111 ] } },
{ "type": "Feature", "properties": { "City_name": "Baoji", "a2020": 1164665.0 }, "geometry": { "type": "Point", "coordinates": [ 107.200449, 34.365118 ] } },
{ "type": "Feature", "properties": { "City_name": "Baotou", "a2020": 2190495.0 }, "geometry": { "type": "Point", "coordinates": [ 109.82222, 40.65222 ] } },
{ "type": "Feature", "properties": { "City_name": "Bayannaoer", "a2020": 443110.0 }, "geometry": { "type": "Point", "coordinates": [ 107.40523, 40.750478 ] } },
{ "type": "Feature", "properties": { "City_name": "Bazhong", "a2020": 991820.0 }, "geometry": { "type": "Point", "coordinates": [ 106.732539, 31.866216 ] } },
{ "type": "Feature", "properties": { "City_name": "Beihai", "a2020": 486986.0 }, "geometry": { "type": "Point", "coordinates": [ 109.119973, 21.478511 ] } },
{ "type": "Feature", "properties": { "City_name": "Beijing", "a2020": 20462610.0 }, "geometry": { "type": "Point", "coordinates": [ 116.39723, 39.9075 ] } },
{ "type": "Feature", "properties": { "City_name": "Bengbu", "a2020": 901773.0 }, "geometry": { "type": "Point", "coordinates": [ 117.36083, 32.94083 ] } },
{ "type": "Feature", "properties": { "City_name": "Benxi", "a2020": 1157413.0 }, "geometry": { "type": "Point", "coordinates": [ 123.7650000000001, 41.28861 ] } },
{ "type": "Feature", "properties": { "City_name": "Bijie", "a2020": 637795.0 }, "geometry": { "type": "Point", "coordinates": [ 105.28368, 27.306953 ] } },
{ "type": "Feature", "properties": { "City_name": "Binzhou", "a2020": 1083867.0 }, "geometry": { "type": "Point", "coordinates": [ 118.010852000000114, 37.381079 ] } },
{ "type": "Feature", "properties": { "City_name": "Botou", "a2020": 394574.0 }, "geometry": { "type": "Point", "coordinates": [ 116.56667, 38.06667 ] } },
{ "type": "Feature", "properties": { "City_name": "Bozhou", "a2020": 742150.0 }, "geometry": { "type": "Point", "coordinates": [ 115.776985, 33.870279 ] } },
{ "type": "Feature", "properties": { "City_name": "Cangzhou", "a2020": 560962.0 }, "geometry": { "type": "Point", "coordinates": [ 116.866670000000113, 38.31667 ] } },
{ "type": "Feature", "properties": { "City_name": "Cenxi", "a2020": 565509.0 }, "geometry": { "type": "Point", "coordinates": [ 110.994456, 22.919083 ] } },
{ "type": "Feature", "properties": { "City_name": "Changchun", "a2020": 4425761.0 }, "geometry": { "type": "Point", "coordinates": [ 125.293964, 43.882494 ] } },
{ "type": "Feature", "properties": { "City_name": "Changde", "a2020": 830010.0 }, "geometry": { "type": "Point", "coordinates": [ 111.6783, 29.04638 ] } },
{ "type": "Feature", "properties": { "City_name": "Changge", "a2020": 490123.0 }, "geometry": { "type": "Point", "coordinates": [ 113.773631, 34.222382 ] } },
{ "type": "Feature", "properties": { "City_name": "Changji", "a2020": 393243.0 }, "geometry": { "type": "Point", "coordinates": [ 87.303752, 44.011737 ] } },
{ "type": "Feature", "properties": { "City_name": "Changning", "a2020": 510275.0 }, "geometry": { "type": "Point", "coordinates": [ 112.395699, 26.407769 ] } },
{ "type": "Feature", "properties": { "City_name": "Changsha", "a2020": 4577723.0 }, "geometry": { "type": "Point", "coordinates": [ 112.938269000000105, 28.227394 ] } },
{ "type": "Feature", "properties": { "City_name": "Changshu", "a2020": 938683.0 }, "geometry": { "type": "Point", "coordinates": [ 120.746654, 31.653905 ] } },
{ "type": "Feature", "properties": { "City_name": "Changyi", "a2020": 482027.0 }, "geometry": { "type": "Point", "coordinates": [ 119.391267, 36.854566 ] } },
{ "type": "Feature", "properties": { "City_name": "Changzhi", "a2020": 846365.0 }, "geometry": { "type": "Point", "coordinates": [ 113.115533, 36.192128 ] } },
{ "type": "Feature", "properties": { "City_name": "Changzhou, Jiangsu", "a2020": 3625328.0 }, "geometry": { "type": "Point", "coordinates": [ 119.958917, 31.794314 ] } },
{ "type": "Feature", "properties": { "City_name": "Chaohu", "a2020": 485120.0 }, "geometry": { "type": "Point", "coordinates": [ 117.866670000000113, 31.6 ] } },
{ "type": "Feature", "properties": { "City_name": "Chaoyang", "a2020": 539052.0 }, "geometry": { "type": "Point", "coordinates": [ 120.451132, 41.577292 ] } },
{ "type": "Feature", "properties": { "City_name": "Chaozhou", "a2020": 1428383.0 }, "geometry": { "type": "Point", "coordinates": [ 116.63786, 23.66513 ] } },
{ "type": "Feature", "properties": { "City_name": "Chengde", "a2020": 880494.0 }, "geometry": { "type": "Point", "coordinates": [ 117.932222, 40.967162 ] } },
{ "type": "Feature", "properties": { "City_name": "Chengdu", "a2020": 9135768.0 }, "geometry": { "type": "Point", "coordinates": [ 104.06667, 30.66667 ] } },
{ "type": "Feature", "properties": { "City_name": "Chenzhou", "a2020": 959881.0 }, "geometry": { "type": "Point", "coordinates": [ 113.03333, 25.8 ] } },
{ "type": "Feature", "properties": { "City_name": "Chifeng", "a2020": 1164793.0 }, "geometry": { "type": "Point", "coordinates": [ 118.915236, 42.264602 ] } },
{ "type": "Feature", "properties": { "City_name": "Chizhou", "a2020": 458420.0 }, "geometry": { "type": "Point", "coordinates": [ 117.48306, 30.65778 ] } },
{ "type": "Feature", "properties": { "City_name": "Chongqing", "a2020": 15872179.0 }, "geometry": { "type": "Point", "coordinates": [ 106.55278, 29.56278 ] } },
{ "type": "Feature", "properties": { "City_name": "Chuxiong", "a2020": 500867.0 }, "geometry": { "type": "Point", "coordinates": [ 101.541009, 25.044539 ] } },
{ "type": "Feature", "properties": { "City_name": "Chuzhou", "a2020": 522062.0 }, "geometry": { "type": "Point", "coordinates": [ 118.316399, 32.29853 ] } },
{ "type": "Feature", "properties": { "City_name": "Cixi", "a2020": 1609221.0 }, "geometry": { "type": "Point", "coordinates": [ 121.2523920000001, 30.176116 ] } },
{ "type": "Feature", "properties": { "City_name": "Dali", "a2020": 514610.0 }, "geometry": { "type": "Point", "coordinates": [ 100.223521, 25.590024 ] } },
{ "type": "Feature", "properties": { "City_name": "Dalian", "a2020": 5617849.0 }, "geometry": { "type": "Point", "coordinates": [ 121.602322, 38.913811 ] } },
{ "type": "Feature", "properties": { "City_name": "Dandong", "a2020": 877258.0 }, "geometry": { "type": "Point", "coordinates": [ 124.373852, 40.119831 ] } },
{ "type": "Feature", "properties": { "City_name": "Danyang", "a2020": 718649.0 }, "geometry": { "type": "Point", "coordinates": [ 119.574455, 32.000797 ] } },
{ "type": "Feature", "properties": { "City_name": "Danzhou", "a2020": 388987.0 }, "geometry": { "type": "Point", "coordinates": [ 109.575215, 19.516575 ] } },
{ "type": "Feature", "properties": { "City_name": "Daqing", "a2020": 1859001.0 }, "geometry": { "type": "Point", "coordinates": [ 125.000000000000114, 46.58333 ] } },
{ "type": "Feature", "properties": { "City_name": "Dashiqiao", "a2020": 368955.0 }, "geometry": { "type": "Point", "coordinates": [ 122.50251, 40.63732 ] } },
{ "type": "Feature", "properties": { "City_name": "Datong", "a2020": 1745333.0 }, "geometry": { "type": "Point", "coordinates": [ 113.293045, 40.080522 ] } },
{ "type": "Feature", "properties": { "City_name": "Daye", "a2020": 578374.0 }, "geometry": { "type": "Point", "coordinates": [ 114.970308, 30.098674 ] } },
{ "type": "Feature", "properties": { "City_name": "Dazhou", "a2020": 682342.0 }, "geometry": { "type": "Point", "coordinates": [ 107.50092, 31.21592 ] } },
{ "type": "Feature", "properties": { "City_name": "Dengfeng", "a2020": 540789.0 }, "geometry": { "type": "Point", "coordinates": [ 113.02806, 34.45528 ] } },
{ "type": "Feature", "properties": { "City_name": "Dengzhou", "a2020": 673626.0 }, "geometry": { "type": "Point", "coordinates": [ 112.08194, 32.68222 ] } },
{ "type": "Feature", "properties": { "City_name": "Deyang", "a2020": 857306.0 }, "geometry": { "type": "Point", "coordinates": [ 104.38198, 31.13019 ] } },
{ "type": "Feature", "properties": { "City_name": "Dezhou", "a2020": 986192.0 }, "geometry": { "type": "Point", "coordinates": [ 116.300973000000113, 37.451765 ] } },
{ "type": "Feature", "properties": { "City_name": "Dingzhou", "a2020": 323646.0 }, "geometry": { "type": "Point", "coordinates": [ 114.99556, 38.51306 ] } },
{ "type": "Feature", "properties": { "City_name": "Donggang", "a2020": 370168.0 }, "geometry": { "type": "Point", "coordinates": [ 124.146248, 39.883429 ] } },
{ "type": "Feature", "properties": { "City_name": "Dongguan", "a2020": 7407852.0 }, "geometry": { "type": "Point", "coordinates": [ 113.741411, 23.02116 ] } },
{ "type": "Feature", "properties": { "City_name": "Dongtai", "a2020": 676996.0 }, "geometry": { "type": "Point", "coordinates": [ 120.30947, 32.85231 ] } },
{ "type": "Feature", "properties": { "City_name": "Dongyang", "a2020": 566083.0 }, "geometry": { "type": "Point", "coordinates": [ 120.230273, 29.275294 ] } },
{ "type": "Feature", "properties": { "City_name": "Dongying", "a2020": 1276028.0 }, "geometry": { "type": "Point", "coordinates": [ 118.578519, 37.453273 ] } },
{ "type": "Feature", "properties": { "City_name": "Dujiangyan", "a2020": 382169.0 }, "geometry": { "type": "Point", "coordinates": [ 103.628081, 30.996625 ] } },
{ "type": "Feature", "properties": { "City_name": "Emeishan", "a2020": 368194.0 }, "geometry": { "type": "Point", "coordinates": [ 103.485573, 29.60065 ] } },
{ "type": "Feature", "properties": { "City_name": "Enping", "a2020": 385670.0 }, "geometry": { "type": "Point", "coordinates": [ 112.304801000000111, 22.185314 ] } },
{ "type": "Feature", "properties": { "City_name": "Enshi", "a2020": 586667.0 }, "geometry": { "type": "Point", "coordinates": [ 109.47854, 30.290188 ] } },
{ "type": "Feature", "properties": { "City_name": "Erduosi (Ordoss)", "a2020": 706657.0 }, "geometry": { "type": "Point", "coordinates": [ 109.766573, 39.591741 ] } },
{ "type": "Feature", "properties": { "City_name": "Ezhou", "a2020": 668405.0 }, "geometry": { "type": "Point", "coordinates": [ 114.884582, 30.400061 ] } },
{ "type": "Feature", "properties": { "City_name": "Fangchenggang", "a2020": 420065.0 }, "geometry": { "type": "Point", "coordinates": [ 108.35395, 21.765917 ] } },
{ "type": "Feature", "properties": { "City_name": "Feicheng", "a2020": 551319.0 }, "geometry": { "type": "Point", "coordinates": [ 116.767394, 36.185412 ] } },
{ "type": "Feature", "properties": { "City_name": "Fengcheng", "a2020": 448073.0 }, "geometry": { "type": "Point", "coordinates": [ 115.775836, 28.178737 ] } },
{ "type": "Feature", "properties": { "City_name": "Foshan", "a2020": 7326852.0 }, "geometry": { "type": "Point", "coordinates": [ 113.119953, 23.022778 ] } },
{ "type": "Feature", "properties": { "City_name": "Fuan", "a2020": 459059.0 }, "geometry": { "type": "Point", "coordinates": [ 119.645351, 27.088055 ] } },
{ "type": "Feature", "properties": { "City_name": "Fujin", "a2020": 329544.0 }, "geometry": { "type": "Point", "coordinates": [ 132.037331000000108, 47.24847 ] } },
{ "type": "Feature", "properties": { "City_name": "Fuqing", "a2020": 584631.0 }, "geometry": { "type": "Point", "coordinates": [ 119.37944, 25.725 ] } },
{ "type": "Feature", "properties": { "City_name": "Fushun, Liaoning", "a2020": 1285387.0 }, "geometry": { "type": "Point", "coordinates": [ 123.946698, 41.880737 ] } },
{ "type": "Feature", "properties": { "City_name": "Fuxin", "a2020": 839189.0 }, "geometry": { "type": "Point", "coordinates": [ 121.65889, 42.01556 ] } },
{ "type": "Feature", "properties": { "City_name": "Fuyang", "a2020": 1036162.0 }, "geometry": { "type": "Point", "coordinates": [ 115.815213, 32.889497 ] } },
{ "type": "Feature", "properties": { "City_name": "Fuzhou, Fujian", "a2020": 3685701.0 }, "geometry": { "type": "Point", "coordinates": [ 119.298946000000115, 26.075352 ] } },
{ "type": "Feature", "properties": { "City_name": "Fuzhou, Jiangxi", "a2020": 989880.0 }, "geometry": { "type": "Point", "coordinates": [ 116.355676, 27.98119 ] } },
{ "type": "Feature", "properties": { "City_name": "Ganzhou", "a2020": 1285039.0 }, "geometry": { "type": "Point", "coordinates": [ 114.93333, 25.85 ] } },
{ "type": "Feature", "properties": { "City_name": "Gaoan", "a2020": 459240.0 }, "geometry": { "type": "Point", "coordinates": [ 115.3722, 28.427086 ] } },
{ "type": "Feature", "properties": { "City_name": "Gaomi", "a2020": 716261.0 }, "geometry": { "type": "Point", "coordinates": [ 119.75278, 36.38333 ] } },
{ "type": "Feature", "properties": { "City_name": "Gaoping", "a2020": 372920.0 }, "geometry": { "type": "Point", "coordinates": [ 112.923038, 35.797693 ] } },
{ "type": "Feature", "properties": { "City_name": "Gaoyou", "a2020": 507934.0 }, "geometry": { "type": "Point", "coordinates": [ 119.447041, 32.779085 ] } },
{ "type": "Feature", "properties": { "City_name": "Gaozhou", "a2020": 537329.0 }, "geometry": { "type": "Point", "coordinates": [ 110.849874, 21.915852 ] } },
{ "type": "Feature", "properties": { "City_name": "Gongyi", "a2020": 511410.0 }, "geometry": { "type": "Point", "coordinates": [ 112.97139, 34.76 ] } },
{ "type": "Feature", "properties": { "City_name": "Gongzhuling", "a2020": 373210.0 }, "geometry": { "type": "Point", "coordinates": [ 124.81979, 43.50075 ] } },
{ "type": "Feature", "properties": { "City_name": "Guang'an", "a2020": 484324.0 }, "geometry": { "type": "Point", "coordinates": [ 106.63512, 30.463918 ] } },
{ "type": "Feature", "properties": { "City_name": "Guangyuan", "a2020": 539179.0 }, "geometry": { "type": "Point", "coordinates": [ 105.823, 32.44202 ] } },
{ "type": "Feature", "properties": { "City_name": "Guangzhou, Guangdong", "a2020": 13301532.0 }, "geometry": { "type": "Point", "coordinates": [ 113.257374, 23.125457 ] } },
{ "type": "Feature", "properties": { "City_name": "Guigang", "a2020": 891173.0 }, "geometry": { "type": "Point", "coordinates": [ 109.60917, 23.09639 ] } },
{ "type": "Feature", "properties": { "City_name": "Guilin", "a2020": 1134393.0 }, "geometry": { "type": "Point", "coordinates": [ 110.28639, 25.28194 ] } },
{ "type": "Feature", "properties": { "City_name": "Guiping", "a2020": 891158.0 }, "geometry": { "type": "Point", "coordinates": [ 110.07437, 23.39336 ] } },
{ "type": "Feature", "properties": { "City_name": "Guiyang", "a2020": 3317110.0 }, "geometry": { "type": "Point", "coordinates": [ 106.71667, 26.58333 ] } },
{ "type": "Feature", "properties": { "City_name": "Haerbin", "a2020": 6387195.0 }, "geometry": { "type": "Point", "coordinates": [ 126.646688, 45.756325 ] } },
{ "type": "Feature", "properties": { "City_name": "Haicheng", "a2020": 783484.0 }, "geometry": { "type": "Point", "coordinates": [ 122.743396, 40.855239 ] } },
{ "type": "Feature", "properties": { "City_name": "Haikou", "a2020": 1889071.0 }, "geometry": { "type": "Point", "coordinates": [ 110.330071, 20.027423 ] } },
{ "type": "Feature", "properties": { "City_name": "Hailin", "a2020": 323336.0 }, "geometry": { "type": "Point", "coordinates": [ 129.389589000000115, 44.576907 ] } },
{ "type": "Feature", "properties": { "City_name": "Haimen", "a2020": 626067.0 }, "geometry": { "type": "Point", "coordinates": [ 121.168399, 31.895193 ] } },
{ "type": "Feature", "properties": { "City_name": "Haining", "a2020": 527655.0 }, "geometry": { "type": "Point", "coordinates": [ 120.68968, 30.527288 ] } },
{ "type": "Feature", "properties": { "City_name": "Haiyang", "a2020": 328140.0 }, "geometry": { "type": "Point", "coordinates": [ 121.170302000000106, 36.782308 ] } },
{ "type": "Feature", "properties": { "City_name": "Hami", "a2020": 398946.0 }, "geometry": { "type": "Point", "coordinates": [ 93.516917, 42.825945 ] } },
{ "type": "Feature", "properties": { "City_name": "Hanchuan", "a2020": 715218.0 }, "geometry": { "type": "Point", "coordinates": [ 113.832908, 30.651646 ] } },
{ "type": "Feature", "properties": { "City_name": "Handan", "a2020": 2726835.0 }, "geometry": { "type": "Point", "coordinates": [ 114.46778, 36.60056 ] } },
{ "type": "Feature", "properties": { "City_name": "Hangzhou", "a2020": 7642147.0 }, "geometry": { "type": "Point", "coordinates": [ 120.16142, 30.29365 ] } },
{ "type": "Feature", "properties": { "City_name": "Hanzhong", "a2020": 605327.0 }, "geometry": { "type": "Point", "coordinates": [ 107.03028, 33.07278 ] } },
{ "type": "Feature", "properties": { "City_name": "Hebi", "a2020": 565986.0 }, "geometry": { "type": "Point", "coordinates": [ 114.295632, 35.747018 ] } },
{ "type": "Feature", "properties": { "City_name": "Hechi", "a2020": 415022.0 }, "geometry": { "type": "Point", "coordinates": [ 108.080828, 24.697683 ] } },
{ "type": "Feature", "properties": { "City_name": "Hefei", "a2020": 4241514.0 }, "geometry": { "type": "Point", "coordinates": [ 117.28083, 31.86389 ] } },
{ "type": "Feature", "properties": { "City_name": "Hegang", "a2020": 638855.0 }, "geometry": { "type": "Point", "coordinates": [ 130.293701, 47.344338 ] } },
{ "type": "Feature", "properties": { "City_name": "Hejian", "a2020": 440022.0 }, "geometry": { "type": "Point", "coordinates": [ 116.094913, 38.442546 ] } },
{ "type": "Feature", "properties": { "City_name": "Hengshui", "a2020": 856705.0 }, "geometry": { "type": "Point", "coordinates": [ 115.678068, 37.741068 ] } },
{ "type": "Feature", "properties": { "City_name": "Hengyang", "a2020": 1527107.0 }, "geometry": { "type": "Point", "coordinates": [ 112.625090000000114, 26.884064 ] } },
{ "type": "Feature", "properties": { "City_name": "Heshan", "a2020": 391932.0 }, "geometry": { "type": "Point", "coordinates": [ 112.959032, 22.765897 ] } },
{ "type": "Feature", "properties": { "City_name": "Heyuan", "a2020": 523818.0 }, "geometry": { "type": "Point", "coordinates": [ 114.6991680000001, 23.750937 ] } },
{ "type": "Feature", "properties": { "City_name": "Heze", "a2020": 795246.0 }, "geometry": { "type": "Point", "coordinates": [ 115.459799, 35.245103 ] } },
{ "type": "Feature", "properties": { "City_name": "Hezhou", "a2020": 625304.0 }, "geometry": { "type": "Point", "coordinates": [ 111.554009, 24.41518 ] } },
{ "type": "Feature", "properties": { "City_name": "Hohhot", "a2020": 2163394.0 }, "geometry": { "type": "Point", "coordinates": [ 111.65222, 40.81056 ] } },
{ "type": "Feature", "properties": { "City_name": "Huai'an", "a2020": 2655320.0 }, "geometry": { "type": "Point", "coordinates": [ 119.014801, 33.606953 ] } },
{ "type": "Feature", "properties": { "City_name": "Huaibei", "a2020": 1141734.0 }, "geometry": { "type": "Point", "coordinates": [ 116.792878, 33.954851 ] } },
{ "type": "Feature", "properties": { "City_name": "Huaihua", "a2020": 751803.0 }, "geometry": { "type": "Point", "coordinates": [ 109.95917, 27.54944 ] } },
{ "type": "Feature", "properties": { "City_name": "Huainan", "a2020": 1437838.0 }, "geometry": { "type": "Point", "coordinates": [ 116.996940000000109, 32.62639 ] } },
{ "type": "Feature", "properties": { "City_name": "Huangshan", "a2020": 398406.0 }, "geometry": { "type": "Point", "coordinates": [ 118.322512, 29.712665 ] } },
{ "type": "Feature", "properties": { "City_name": "Huangshi", "a2020": 828324.0 }, "geometry": { "type": "Point", "coordinates": [ 115.085462, 30.20678 ] } },
{ "type": "Feature", "properties": { "City_name": "Huazhou", "a2020": 355837.0 }, "geometry": { "type": "Point", "coordinates": [ 110.639112, 21.657237 ] } },
{ "type": "Feature", "properties": { "City_name": "Huixian", "a2020": 358553.0 }, "geometry": { "type": "Point", "coordinates": [ 113.801263, 35.467213 ] } },
{ "type": "Feature", "properties": { "City_name": "Huizhou", "a2020": 2524543.0 }, "geometry": { "type": "Point", "coordinates": [ 114.4, 23.08333 ] } },
{ "type": "Feature", "properties": { "City_name": "Huludao", "a2020": 775322.0 }, "geometry": { "type": "Point", "coordinates": [ 120.83552, 40.75242 ] } },
{ "type": "Feature", "properties": { "City_name": "Huzhou", "a2020": 988351.0 }, "geometry": { "type": "Point", "coordinates": [ 120.093300000000113, 30.8703 ] } },
{ "type": "Feature", "properties": { "City_name": "Jiamusi", "a2020": 715965.0 }, "geometry": { "type": "Point", "coordinates": [ 130.330183, 46.797936 ] } },
{ "type": "Feature", "properties": { "City_name": "Ji'an, Jiangxi", "a2020": 435064.0 }, "geometry": { "type": "Point", "coordinates": [ 114.980419, 27.1177 ] } },
{ "type": "Feature", "properties": { "City_name": "Jiangmen", "a2020": 1687310.0 }, "geometry": { "type": "Point", "coordinates": [ 113.08333, 22.58333 ] } },
{ "type": "Feature", "properties": { "City_name": "Jiangyin", "a2020": 843292.0 }, "geometry": { "type": "Point", "coordinates": [ 120.28096, 31.915679 ] } },
{ "type": "Feature", "properties": { "City_name": "Jianyang", "a2020": 487133.0 }, "geometry": { "type": "Point", "coordinates": [ 104.544758, 30.392089 ] } },
{ "type": "Feature", "properties": { "City_name": "Jiaozhou", "a2020": 551500.0 }, "geometry": { "type": "Point", "coordinates": [ 120.00333, 36.28389 ] } },
{ "type": "Feature", "properties": { "City_name": "Jiaozuo", "a2020": 766770.0 }, "geometry": { "type": "Point", "coordinates": [ 113.23306, 35.23972 ] } },
{ "type": "Feature", "properties": { "City_name": "Jiaxing", "a2020": 1259844.0 }, "geometry": { "type": "Point", "coordinates": [ 120.748231, 30.766487 ] } },
{ "type": "Feature", "properties": { "City_name": "Jiayuguan", "a2020": 336493.0 }, "geometry": { "type": "Point", "coordinates": [ 98.276067, 39.807998 ] } },
{ "type": "Feature", "properties": { "City_name": "Jieyang", "a2020": 1146758.0 }, "geometry": { "type": "Point", "coordinates": [ 116.372145, 23.552629 ] } },
{ "type": "Feature", "properties": { "City_name": "Jilin", "a2020": 1603332.0 }, "geometry": { "type": "Point", "coordinates": [ 126.56028, 43.85083 ] } },
{ "type": "Feature", "properties": { "City_name": "Ji'nan, Shandong", "a2020": 5360185.0 }, "geometry": { "type": "Point", "coordinates": [ 116.997142, 36.676721 ] } },
{ "type": "Feature", "properties": { "City_name": "Jincheng", "a2020": 733879.0 }, "geometry": { "type": "Point", "coordinates": [ 112.851484, 35.486475 ] } },
{ "type": "Feature", "properties": { "City_name": "Jingdezhen", "a2020": 396297.0 }, "geometry": { "type": "Point", "coordinates": [ 117.20789, 29.2947 ] } },
{ "type": "Feature", "properties": { "City_name": "Jingjiang", "a2020": 577513.0 }, "geometry": { "type": "Point", "coordinates": [ 120.262719, 32.011966 ] } },
{ "type": "Feature", "properties": { "City_name": "Jingmen", "a2020": 488922.0 }, "geometry": { "type": "Point", "coordinates": [ 112.200343, 31.041652 ] } },
{ "type": "Feature", "properties": { "City_name": "Jingzhou, Hubei", "a2020": 1038296.0 }, "geometry": { "type": "Point", "coordinates": [ 112.248367, 30.327567 ] } },
{ "type": "Feature", "properties": { "City_name": "Jinhua", "a2020": 1122440.0 }, "geometry": { "type": "Point", "coordinates": [ 119.646369, 29.080651 ] } },
{ "type": "Feature", "properties": { "City_name": "Jining, Shandong", "a2020": 1494249.0 }, "geometry": { "type": "Point", "coordinates": [ 116.584704000000102, 35.414595 ] } },
{ "type": "Feature", "properties": { "City_name": "Jinjiang", "a2020": 498294.0 }, "geometry": { "type": "Point", "coordinates": [ 118.577293, 24.810636 ] } },
{ "type": "Feature", "properties": { "City_name": "Jinzhong", "a2020": 599611.0 }, "geometry": { "type": "Point", "coordinates": [ 112.734878, 37.688161 ] } },
{ "type": "Feature", "properties": { "City_name": "Jinzhou", "a2020": 1145359.0 }, "geometry": { "type": "Point", "coordinates": [ 121.14167, 41.10778 ] } },
{ "type": "Feature", "properties": { "City_name": "Jiujiang", "a2020": 913212.0 }, "geometry": { "type": "Point", "coordinates": [ 116.001302, 29.704105 ] } },
{ "type": "Feature", "properties": { "City_name": "Jiuquan", "a2020": 382363.0 }, "geometry": { "type": "Point", "coordinates": [ 98.504228, 39.737966 ] } },
{ "type": "Feature", "properties": { "City_name": "Jixi, Heilongjiang", "a2020": 949646.0 }, "geometry": { "type": "Point", "coordinates": [ 130.970134, 45.295804 ] } },
{ "type": "Feature", "properties": { "City_name": "Jiyuan", "a2020": 415541.0 }, "geometry": { "type": "Point", "coordinates": [ 112.583273, 35.09264 ] } },
{ "type": "Feature", "properties": { "City_name": "Jurong", "a2020": 434797.0 }, "geometry": { "type": "Point", "coordinates": [ 119.160916, 31.949802 ] } },
{ "type": "Feature", "properties": { "City_name": "Kaifeng", "a2020": 1274287.0 }, "geometry": { "type": "Point", "coordinates": [ 114.34833, 34.79111 ] } },
{ "type": "Feature", "properties": { "City_name": "Kaili", "a2020": 347563.0 }, "geometry": { "type": "Point", "coordinates": [ 107.971854, 26.583431 ] } },
{ "type": "Feature", "properties": { "City_name": "Kaiping", "a2020": 399946.0 }, "geometry": { "type": "Point", "coordinates": [ 112.702597, 22.372447 ] } },
{ "type": "Feature", "properties": { "City_name": "Kelamayi", "a2020": 457422.0 }, "geometry": { "type": "Point", "coordinates": [ 84.872929, 45.594143 ] } },
{ "type": "Feature", "properties": { "City_name": "Kuerle", "a2020": 761329.0 }, "geometry": { "type": "Point", "coordinates": [ 86.147227, 41.764562 ] } },
{ "type": "Feature", "properties": { "City_name": "Kunming", "a2020": 4443186.0 }, "geometry": { "type": "Point", "coordinates": [ 102.71833, 25.03889 ] } },
{ "type": "Feature", "properties": { "City_name": "Kunshan", "a2020": 737654.0 }, "geometry": { "type": "Point", "coordinates": [ 120.962872, 31.388114 ] } },
{ "type": "Feature", "properties": { "City_name": "Laibin", "a2020": 404239.0 }, "geometry": { "type": "Point", "coordinates": [ 109.226765, 23.737978 ] } },
{ "type": "Feature", "properties": { "City_name": "Laiwu", "a2020": 907839.0 }, "geometry": { "type": "Point", "coordinates": [ 117.672021, 36.207444 ] } },
{ "type": "Feature", "properties": { "City_name": "Laixi", "a2020": 505117.0 }, "geometry": { "type": "Point", "coordinates": [ 120.52381, 36.865132 ] } },
{ "type": "Feature", "properties": { "City_name": "Laiyang", "a2020": 387064.0 }, "geometry": { "type": "Point", "coordinates": [ 120.71361, 36.97583 ] } },
{ "type": "Feature", "properties": { "City_name": "Laizhou", "a2020": 394174.0 }, "geometry": { "type": "Point", "coordinates": [ 119.943045, 37.179653 ] } },
{ "type": "Feature", "properties": { "City_name": "Langfang", "a2020": 739632.0 }, "geometry": { "type": "Point", "coordinates": [ 116.69472, 39.50972 ] } },
{ "type": "Feature", "properties": { "City_name": "Lanzhou", "a2020": 3080522.0 }, "geometry": { "type": "Point", "coordinates": [ 103.79222, 36.05639 ] } },
{ "type": "Feature", "properties": { "City_name": "Leiyang", "a2020": 851071.0 }, "geometry": { "type": "Point", "coordinates": [ 112.850257, 26.416884 ] } },
{ "type": "Feature", "properties": { "City_name": "Lengshuijiang", "a2020": 343568.0 }, "geometry": { "type": "Point", "coordinates": [ 111.437353, 27.687923 ] } },
{ "type": "Feature", "properties": { "City_name": "Leping", "a2020": 348096.0 }, "geometry": { "type": "Point", "coordinates": [ 117.128335000000106, 28.971963 ] } },
{ "type": "Feature", "properties": { "City_name": "Leshan", "a2020": 986923.0 }, "geometry": { "type": "Point", "coordinates": [ 103.75896, 29.576174 ] } },
{ "type": "Feature", "properties": { "City_name": "Lianyungang", "a2020": 1820127.0 }, "geometry": { "type": "Point", "coordinates": [ 119.175775, 34.59687 ] } },
{ "type": "Feature", "properties": { "City_name": "Liaocheng", "a2020": 760885.0 }, "geometry": { "type": "Point", "coordinates": [ 115.982616, 36.455124 ] } },
{ "type": "Feature", "properties": { "City_name": "Liaoyang", "a2020": 855663.0 }, "geometry": { "type": "Point", "coordinates": [ 123.17306, 41.27194 ] } },
{ "type": "Feature", "properties": { "City_name": "Liaoyuan", "a2020": 374789.0 }, "geometry": { "type": "Point", "coordinates": [ 125.13583, 42.90361 ] } },
{ "type": "Feature", "properties": { "City_name": "Liling", "a2020": 812975.0 }, "geometry": { "type": "Point", "coordinates": [ 113.500000000000114, 27.66667 ] } },
{ "type": "Feature", "properties": { "City_name": "Linfen", "a2020": 858103.0 }, "geometry": { "type": "Point", "coordinates": [ 111.51889, 36.08889 ] } },
{ "type": "Feature", "properties": { "City_name": "Linhai", "a2020": 708981.0 }, "geometry": { "type": "Point", "coordinates": [ 121.140343, 28.852887 ] } },
{ "type": "Feature", "properties": { "City_name": "Linqing", "a2020": 383372.0 }, "geometry": { "type": "Point", "coordinates": [ 115.71167, 36.84556 ] } },
{ "type": "Feature", "properties": { "City_name": "Linyi, Shandong", "a2020": 1936908.0 }, "geometry": { "type": "Point", "coordinates": [ 118.333365, 35.054142 ] } },
{ "type": "Feature", "properties": { "City_name": "Linzhou", "a2020": 408275.0 }, "geometry": { "type": "Point", "coordinates": [ 113.815557, 36.071045 ] } },
{ "type": "Feature", "properties": { "City_name": "Lishui, Zhejiang", "a2020": 422306.0 }, "geometry": { "type": "Point", "coordinates": [ 119.919233, 28.456982 ] } },
{ "type": "Feature", "properties": { "City_name": "Liuan", "a2020": 1195907.0 }, "geometry": { "type": "Point", "coordinates": [ 116.498142, 31.754268 ] } },
{ "type": "Feature", "properties": { "City_name": "Liupanshui", "a2020": 1077317.0 }, "geometry": { "type": "Point", "coordinates": [ 104.837711, 26.592289 ] } },
{ "type": "Feature", "properties": { "City_name": "Liuyang", "a2020": 1169044.0 }, "geometry": { "type": "Point", "coordinates": [ 113.633330000000115, 28.15 ] } },
{ "type": "Feature", "properties": { "City_name": "Liuzhou", "a2020": 2165257.0 }, "geometry": { "type": "Point", "coordinates": [ 109.378368, 24.301725 ] } },
{ "type": "Feature", "properties": { "City_name": "Liyang", "a2020": 454339.0 }, "geometry": { "type": "Point", "coordinates": [ 119.483691, 31.422985 ] } },
{ "type": "Feature", "properties": { "City_name": "Longchang", "a2020": 403680.0 }, "geometry": { "type": "Point", "coordinates": [ 105.2876, 29.3394 ] } },
{ "type": "Feature", "properties": { "City_name": "Longhai", "a2020": 631203.0 }, "geometry": { "type": "Point", "coordinates": [ 117.809024, 24.446231 ] } },
{ "type": "Feature", "properties": { "City_name": "Longkou", "a2020": 520568.0 }, "geometry": { "type": "Point", "coordinates": [ 120.519875, 37.641712 ] } },
{ "type": "Feature", "properties": { "City_name": "Longyan", "a2020": 691987.0 }, "geometry": { "type": "Point", "coordinates": [ 117.0225, 25.10722 ] } },
{ "type": "Feature", "properties": { "City_name": "Loudi", "a2020": 639167.0 }, "geometry": { "type": "Point", "coordinates": [ 111.99444, 27.73444 ] } },
{ "type": "Feature", "properties": { "City_name": "Luoding", "a2020": 364909.0 }, "geometry": { "type": "Point", "coordinates": [ 111.565963, 22.770797 ] } },
{ "type": "Feature", "properties": { "City_name": "Luohe", "a2020": 1039941.0 }, "geometry": { "type": "Point", "coordinates": [ 114.024063, 33.573149 ] } },
{ "type": "Feature", "properties": { "City_name": "Luoyang", "a2020": 2387094.0 }, "geometry": { "type": "Point", "coordinates": [ 112.456179, 34.618562 ] } },
{ "type": "Feature", "properties": { "City_name": "Luzhou", "a2020": 822996.0 }, "geometry": { "type": "Point", "coordinates": [ 105.440814, 28.877528 ] } },
{ "type": "Feature", "properties": { "City_name": "Lvliang", "a2020": 441843.0 }, "geometry": { "type": "Point", "coordinates": [ 111.131763, 37.519533 ] } },
{ "type": "Feature", "properties": { "City_name": "Ma'anshan", "a2020": 1019389.0 }, "geometry": { "type": "Point", "coordinates": [ 118.503768, 31.707085 ] } },
{ "type": "Feature", "properties": { "City_name": "Macheng", "a2020": 352419.0 }, "geometry": { "type": "Point", "coordinates": [ 115.03194, 31.17833 ] } },
{ "type": "Feature", "properties": { "City_name": "Manzhouli", "a2020": 336643.0 }, "geometry": { "type": "Point", "coordinates": [ 117.454485, 49.588089 ] } },
{ "type": "Feature", "properties": { "City_name": "Maoming", "a2020": 1204716.0 }, "geometry": { "type": "Point", "coordinates": [ 110.923448, 21.662659 ] } },
{ "type": "Feature", "properties": { "City_name": "Meishan", "a2020": 723267.0 }, "geometry": { "type": "Point", "coordinates": [ 103.845638, 30.076148 ] } },
{ "type": "Feature", "properties": { "City_name": "Meizhou", "a2020": 397834.0 }, "geometry": { "type": "Point", "coordinates": [ 116.12139, 24.298896 ] } },
{ "type": "Feature", "properties": { "City_name": "Mianyang, Sichuan", "a2020": 1275851.0 }, "geometry": { "type": "Point", "coordinates": [ 104.737019, 31.483888 ] } },
{ "type": "Feature", "properties": { "City_name": "Miluo", "a2020": 604159.0 }, "geometry": { "type": "Point", "coordinates": [ 113.072064, 28.806933 ] } },
{ "type": "Feature", "properties": { "City_name": "Mudanjiang", "a2020": 925522.0 }, "geometry": { "type": "Point", "coordinates": [ 129.6, 44.58333 ] } },
{ "type": "Feature", "properties": { "City_name": "Nanchang", "a2020": 3598421.0 }, "geometry": { "type": "Point", "coordinates": [ 115.883330000000115, 28.68333 ] } },
{ "type": "Feature", "properties": { "City_name": "Nanchong", "a2020": 1257726.0 }, "geometry": { "type": "Point", "coordinates": [ 106.08474, 30.79508 ] } },
{ "type": "Feature", "properties": { "City_name": "Nanjing, Jiangsu", "a2020": 8847372.0 }, "geometry": { "type": "Point", "coordinates": [ 118.789812, 32.048183 ] } },
{ "type": "Feature", "properties": { "City_name": "Nankang", "a2020": 417052.0 }, "geometry": { "type": "Point", "coordinates": [ 114.755751, 25.665464 ] } },
{ "type": "Feature", "properties": { "City_name": "Nanning", "a2020": 3859608.0 }, "geometry": { "type": "Point", "coordinates": [ 108.31667, 22.81667 ] } },
{ "type": "Feature", "properties": { "City_name": "Nanping", "a2020": 491287.0 }, "geometry": { "type": "Point", "coordinates": [ 118.174098, 26.643275 ] } },
{ "type": "Feature", "properties": { "City_name": "Nantong", "a2020": 2275777.0 }, "geometry": { "type": "Point", "coordinates": [ 120.865451, 31.990413 ] } },
{ "type": "Feature", "properties": { "City_name": "Nanyang, Henan", "a2020": 1142799.0 }, "geometry": { "type": "Point", "coordinates": [ 112.52593, 32.999941 ] } },
{ "type": "Feature", "properties": { "City_name": "Neijiang", "a2020": 645874.0 }, "geometry": { "type": "Point", "coordinates": [ 105.06216, 29.58354 ] } },
{ "type": "Feature", "properties": { "City_name": "Ningbo", "a2020": 4116209.0 }, "geometry": { "type": "Point", "coordinates": [ 121.54945, 29.87819 ] } },
{ "type": "Feature", "properties": { "City_name": "Ningde", "a2020": 334023.0 }, "geometry": { "type": "Point", "coordinates": [ 119.52278, 26.66167 ] } },
{ "type": "Feature", "properties": { "City_name": "Ningguo", "a2020": 340375.0 }, "geometry": { "type": "Point", "coordinates": [ 118.979636, 30.620899 ] } },
{ "type": "Feature", "properties": { "City_name": "Panjin", "a2020": 1053125.0 }, "geometry": { "type": "Point", "coordinates": [ 122.070073, 41.121893 ] } },
{ "type": "Feature", "properties": { "City_name": "Panzhihua", "a2020": 707134.0 }, "geometry": { "type": "Point", "coordinates": [ 101.71276, 26.58509 ] } },
{ "type": "Feature", "properties": { "City_name": "Pingdingshan, Henan", "a2020": 1159981.0 }, "geometry": { "type": "Point", "coordinates": [ 113.304003, 33.74166 ] } },
{ "type": "Feature", "properties": { "City_name": "Pingdu", "a2020": 525093.0 }, "geometry": { "type": "Point", "coordinates": [ 119.959214, 36.780791 ] } },
{ "type": "Feature", "properties": { "City_name": "Pinghu", "a2020": 440963.0 }, "geometry": { "type": "Point", "coordinates": [ 121.009699, 30.703667 ] } },
{ "type": "Feature", "properties": { "City_name": "Pingliang", "a2020": 380401.0 }, "geometry": { "type": "Point", "coordinates": [ 106.68611, 35.53917 ] } },
{ "type": "Feature", "properties": { "City_name": "Pingxiang, Jiangxi", "a2020": 928895.0 }, "geometry": { "type": "Point", "coordinates": [ 113.847689, 27.634816 ] } },
{ "type": "Feature", "properties": { "City_name": "Pizhou", "a2020": 1063231.0 }, "geometry": { "type": "Point", "coordinates": [ 117.95028, 34.31139 ] } },
{ "type": "Feature", "properties": { "City_name": "Puning", "a2020": 1160045.0 }, "geometry": { "type": "Point", "coordinates": [ 116.164678, 23.296655 ] } },
{ "type": "Feature", "properties": { "City_name": "Putian", "a2020": 1907350.0 }, "geometry": { "type": "Point", "coordinates": [ 119.01028, 25.43944 ] } },
{ "type": "Feature", "properties": { "City_name": "Puyang", "a2020": 632347.0 }, "geometry": { "type": "Point", "coordinates": [ 115.043769000000111, 35.77051 ] } },
{ "type": "Feature", "properties": { "City_name": "Qianjiang", "a2020": 511738.0 }, "geometry": { "type": "Point", "coordinates": [ 112.892537, 30.422118 ] } },
{ "type": "Feature", "properties": { "City_name": "Qidong", "a2020": 362526.0 }, "geometry": { "type": "Point", "coordinates": [ 121.657662, 31.813433 ] } },
{ "type": "Feature", "properties": { "City_name": "Qingdao", "a2020": 5619977.0 }, "geometry": { "type": "Point", "coordinates": [ 120.371940000000109, 36.09861 ] } },
{ "type": "Feature", "properties": { "City_name": "Qingyuan", "a2020": 734856.0 }, "geometry": { "type": "Point", "coordinates": [ 113.029707, 23.714582 ] } },
{ "type": "Feature", "properties": { "City_name": "Qingzhou", "a2020": 520371.0 }, "geometry": { "type": "Point", "coordinates": [ 118.479622, 36.684528 ] } },
{ "type": "Feature", "properties": { "City_name": "Qinhuangdao", "a2020": 1535223.0 }, "geometry": { "type": "Point", "coordinates": [ 119.58833, 39.93167 ] } },
{ "type": "Feature", "properties": { "City_name": "Qinzhou", "a2020": 644359.0 }, "geometry": { "type": "Point", "coordinates": [ 108.62136, 21.96808 ] } },
{ "type": "Feature", "properties": { "City_name": "Qiqihaer", "a2020": 1559581.0 }, "geometry": { "type": "Point", "coordinates": [ 123.967220000000111, 47.34083 ] } },
{ "type": "Feature", "properties": { "City_name": "Qitaihe", "a2020": 578992.0 }, "geometry": { "type": "Point", "coordinates": [ 130.975, 45.767053 ] } },
{ "type": "Feature", "properties": { "City_name": "Quanzhou", "a2020": 1694076.0 }, "geometry": { "type": "Point", "coordinates": [ 118.599688, 24.896763 ] } },
{ "type": "Feature", "properties": { "City_name": "Qufu", "a2020": 365574.0 }, "geometry": { "type": "Point", "coordinates": [ 116.99111, 35.59667 ] } },
{ "type": "Feature", "properties": { "City_name": "Qujing", "a2020": 942342.0 }, "geometry": { "type": "Point", "coordinates": [ 103.797682, 25.489377 ] } },
{ "type": "Feature", "properties": { "City_name": "Quzhou", "a2020": 757655.0 }, "geometry": { "type": "Point", "coordinates": [ 118.868610000000103, 28.95944 ] } },
{ "type": "Feature", "properties": { "City_name": "Renqiu", "a2020": 640271.0 }, "geometry": { "type": "Point", "coordinates": [ 116.09361, 38.69889 ] } },
{ "type": "Feature", "properties": { "City_name": "Rizhao", "a2020": 1270948.0 }, "geometry": { "type": "Point", "coordinates": [ 119.511996, 35.40336 ] } },
{ "type": "Feature", "properties": { "City_name": "Rongcheng", "a2020": 407671.0 }, "geometry": { "type": "Point", "coordinates": [ 122.436268, 37.15396 ] } },
{ "type": "Feature", "properties": { "City_name": "Rugao", "a2020": 317217.0 }, "geometry": { "type": "Point", "coordinates": [ 120.560432000000105, 32.397711 ] } },
{ "type": "Feature", "properties": { "City_name": "Ruian", "a2020": 1168983.0 }, "geometry": { "type": "Point", "coordinates": [ 120.675519, 27.780759 ] } },
{ "type": "Feature", "properties": { "City_name": "Rushan", "a2020": 321112.0 }, "geometry": { "type": "Point", "coordinates": [ 121.526687, 36.915783 ] } },
{ "type": "Feature", "properties": { "City_name": "Sanhe", "a2020": 576241.0 }, "geometry": { "type": "Point", "coordinates": [ 117.071330000000103, 39.981938 ] } },
{ "type": "Feature", "properties": { "City_name": "Sanmenxia", "a2020": 561369.0 }, "geometry": { "type": "Point", "coordinates": [ 111.20379, 34.771452 ] } },
{ "type": "Feature", "properties": { "City_name": "Sanming", "a2020": 372443.0 }, "geometry": { "type": "Point", "coordinates": [ 117.619053, 26.264076 ] } },
{ "type": "Feature", "properties": { "City_name": "Sanya", "a2020": 625290.0 }, "geometry": { "type": "Point", "coordinates": [ 109.503412, 18.267573 ] } },
{ "type": "Feature", "properties": { "City_name": "Shanghai", "a2020": 27058479.0 }, "geometry": { "type": "Point", "coordinates": [ 121.45806, 31.22222 ] } },
{ "type": "Feature", "properties": { "City_name": "Shangqiu", "a2020": 826598.0 }, "geometry": { "type": "Point", "coordinates": [ 115.651378, 34.424422 ] } },
{ "type": "Feature", "properties": { "City_name": "Shangrao", "a2020": 1028518.0 }, "geometry": { "type": "Point", "coordinates": [ 117.953064, 28.460359 ] } },
{ "type": "Feature", "properties": { "City_name": "Shangyu", "a2020": 510813.0 }, "geometry": { "type": "Point", "coordinates": [ 120.872182, 30.031143 ] } },
{ "type": "Feature", "properties": { "City_name": "Shantou", "a2020": 4327316.0 }, "geometry": { "type": "Point", "coordinates": [ 116.714790000000107, 23.36814 ] } },
{ "type": "Feature", "properties": { "City_name": "Shanwei", "a2020": 429622.0 }, "geometry": { "type": "Point", "coordinates": [ 115.356782, 22.778662 ] } },
{ "type": "Feature", "properties": { "City_name": "Shaoguan", "a2020": 761249.0 }, "geometry": { "type": "Point", "coordinates": [ 113.58333, 24.8 ] } },
{ "type": "Feature", "properties": { "City_name": "Shaoxing", "a2020": 2540018.0 }, "geometry": { "type": "Point", "coordinates": [ 120.5715, 30.011 ] } },
{ "type": "Feature", "properties": { "City_name": "Shaoyang", "a2020": 713559.0 }, "geometry": { "type": "Point", "coordinates": [ 111.470907, 27.240329 ] } },
{ "type": "Feature", "properties": { "City_name": "Shengzhou", "a2020": 401022.0 }, "geometry": { "type": "Point", "coordinates": [ 120.821389, 29.593023 ] } },
{ "type": "Feature", "properties": { "City_name": "Shenmu", "a2020": 349271.0 }, "geometry": { "type": "Point", "coordinates": [ 110.4847, 38.8341 ] } },
{ "type": "Feature", "properties": { "City_name": "Shenyang", "a2020": 7220104.0 }, "geometry": { "type": "Point", "coordinates": [ 123.43278, 41.79222 ] } },
{ "type": "Feature", "properties": { "City_name": "Shenzhen", "a2020": 12356820.0 }, "geometry": { "type": "Point", "coordinates": [ 114.063427, 22.541487 ] } },
{ "type": "Feature", "properties": { "City_name": "Shihezi", "a2020": 329750.0 }, "geometry": { "type": "Point", "coordinates": [ 86.03204, 44.307503 ] } },
{ "type": "Feature", "properties": { "City_name": "Shijiazhuang", "a2020": 4114393.0 }, "geometry": { "type": "Point", "coordinates": [ 114.510846, 38.041845 ] } },
{ "type": "Feature", "properties": { "City_name": "Shishi", "a2020": 585317.0 }, "geometry": { "type": "Point", "coordinates": [ 118.634046, 24.736683 ] } },
{ "type": "Feature", "properties": { "City_name": "Shiyan", "a2020": 1241450.0 }, "geometry": { "type": "Point", "coordinates": [ 110.783587, 32.644469 ] } },
{ "type": "Feature", "properties": { "City_name": "Shizuishan", "a2020": 514455.0 }, "geometry": { "type": "Point", "coordinates": [ 106.7694, 39.2333 ] } },
{ "type": "Feature", "properties": { "City_name": "Shouguang", "a2020": 544207.0 }, "geometry": { "type": "Point", "coordinates": [ 118.748212, 36.878792 ] } },
{ "type": "Feature", "properties": { "City_name": "Shuangyashan", "a2020": 503179.0 }, "geometry": { "type": "Point", "coordinates": [ 131.15389, 46.63611 ] } },
{ "type": "Feature", "properties": { "City_name": "Shuozhou", "a2020": 563456.0 }, "geometry": { "type": "Point", "coordinates": [ 112.4225, 39.31583 ] } },
{ "type": "Feature", "properties": { "City_name": "Sihui", "a2020": 591080.0 }, "geometry": { "type": "Point", "coordinates": [ 112.695815, 23.346173 ] } },
{ "type": "Feature", "properties": { "City_name": "Siping", "a2020": 594482.0 }, "geometry": { "type": "Point", "coordinates": [ 124.368610000000103, 43.16333 ] } },
{ "type": "Feature", "properties": { "City_name": "Songyuan", "a2020": 513231.0 }, "geometry": { "type": "Point", "coordinates": [ 119.0592, 27.6217 ] } },
{ "type": "Feature", "properties": { "City_name": "Songzi", "a2020": 332001.0 }, "geometry": { "type": "Point", "coordinates": [ 111.776054, 30.173561 ] } },
{ "type": "Feature", "properties": { "City_name": "Suihua", "a2020": 421817.0 }, "geometry": { "type": "Point", "coordinates": [ 126.982968, 46.636597 ] } },
{ "type": "Feature", "properties": { "City_name": "Suining, Sichuan", "a2020": 699679.0 }, "geometry": { "type": "Point", "coordinates": [ 105.563901, 30.523613 ] } },
{ "type": "Feature", "properties": { "City_name": "Suizhou", "a2020": 445438.0 }, "geometry": { "type": "Point", "coordinates": [ 113.36306, 31.71111 ] } },
{ "type": "Feature", "properties": { "City_name": "Suqian", "a2020": 1440060.0 }, "geometry": { "type": "Point", "coordinates": [ 118.292384, 33.968102 ] } },
{ "type": "Feature", "properties": { "City_name": "Suzhou, Anhui", "a2020": 1169932.0 }, "geometry": { "type": "Point", "coordinates": [ 116.974726, 33.635918 ] } },
{ "type": "Feature", "properties": { "City_name": "Suzhou, Jiangsu", "a2020": 7069992.0 }, "geometry": { "type": "Point", "coordinates": [ 120.585259, 31.302068 ] } },
{ "type": "Feature", "properties": { "City_name": "Taian, Shandong", "a2020": 1338828.0 }, "geometry": { "type": "Point", "coordinates": [ 117.119081, 36.190371 ] } },
{ "type": "Feature", "properties": { "City_name": "Taicang", "a2020": 654441.0 }, "geometry": { "type": "Point", "coordinates": [ 121.117171, 31.454873 ] } },
{ "type": "Feature", "properties": { "City_name": "Taishan", "a2020": 524937.0 }, "geometry": { "type": "Point", "coordinates": [ 112.794336, 22.250432 ] } },
{ "type": "Feature", "properties": { "City_name": "Taixing", "a2020": 747588.0 }, "geometry": { "type": "Point", "coordinates": [ 120.01361, 32.16667 ] } },
{ "type": "Feature", "properties": { "City_name": "Taiyuan, Shanxi", "a2020": 3891127.0 }, "geometry": { "type": "Point", "coordinates": [ 112.551572, 37.861899 ] } },
{ "type": "Feature", "properties": { "City_name": "Taizhou, Jiangsu", "a2020": 1348056.0 }, "geometry": { "type": "Point", "coordinates": [ 119.902861, 32.494536 ] } },
{ "type": "Feature", "properties": { "City_name": "Taizhou, Zhejiang", "a2020": 1934847.0 }, "geometry": { "type": "Point", "coordinates": [ 121.418459, 28.637219 ] } },
{ "type": "Feature", "properties": { "City_name": "Tangshan, Hebei", "a2020": 3425638.0 }, "geometry": { "type": "Point", "coordinates": [ 118.179931, 39.628484 ] } },
{ "type": "Feature", "properties": { "City_name": "Tengzhou", "a2020": 1189963.0 }, "geometry": { "type": "Point", "coordinates": [ 117.162387, 35.084539 ] } },
{ "type": "Feature", "properties": { "City_name": "Tianjin", "a2020": 13589078.0 }, "geometry": { "type": "Point", "coordinates": [ 117.18862, 39.108842 ] } },
{ "type": "Feature", "properties": { "City_name": "Tianmen", "a2020": 869837.0 }, "geometry": { "type": "Point", "coordinates": [ 113.160506, 30.653449 ] } },
{ "type": "Feature", "properties": { "City_name": "Tianshui", "a2020": 765372.0 }, "geometry": { "type": "Point", "coordinates": [ 105.723718, 34.580929 ] } },
{ "type": "Feature", "properties": { "City_name": "Tieling", "a2020": 412264.0 }, "geometry": { "type": "Point", "coordinates": [ 123.84139, 42.29306 ] } },
{ "type": "Feature", "properties": { "City_name": "Tongcheng", "a2020": 418418.0 }, "geometry": { "type": "Point", "coordinates": [ 116.95557, 31.053789 ] } },
{ "type": "Feature", "properties": { "City_name": "Tongchuan", "a2020": 546649.0 }, "geometry": { "type": "Point", "coordinates": [ 108.95056, 34.8988 ] } },
{ "type": "Feature", "properties": { "City_name": "Tonghua", "a2020": 572967.0 }, "geometry": { "type": "Point", "coordinates": [ 125.928089000000114, 41.720071 ] } },
{ "type": "Feature", "properties": { "City_name": "Tongliao", "a2020": 702280.0 }, "geometry": { "type": "Point", "coordinates": [ 122.26528, 43.6125 ] } },
{ "type": "Feature", "properties": { "City_name": "Tongling", "a2020": 696639.0 }, "geometry": { "type": "Point", "coordinates": [ 117.810916, 30.936306 ] } },
{ "type": "Feature", "properties": { "City_name": "Tongxiang", "a2020": 629527.0 }, "geometry": { "type": "Point", "coordinates": [ 120.55359, 30.629604 ] } },
{ "type": "Feature", "properties": { "City_name": "Ürümqi (Wulumqi)", "a2020": 4368865.0 }, "geometry": { "type": "Point", "coordinates": [ 87.603835, 43.82532 ] } },
{ "type": "Feature", "properties": { "City_name": "Wafangdian", "a2020": 459825.0 }, "geometry": { "type": "Point", "coordinates": [ 121.994937, 39.626683 ] } },
{ "type": "Feature", "properties": { "City_name": "Wanning", "a2020": 362912.0 }, "geometry": { "type": "Point", "coordinates": [ 110.382562, 18.795537 ] } },
{ "type": "Feature", "properties": { "City_name": "Weifang", "a2020": 2653989.0 }, "geometry": { "type": "Point", "coordinates": [ 119.10194, 36.71 ] } },
{ "type": "Feature", "properties": { "City_name": "Weihai", "a2020": 1304315.0 }, "geometry": { "type": "Point", "coordinates": [ 122.113610000000108, 37.50167 ] } },
{ "type": "Feature", "properties": { "City_name": "Weinan", "a2020": 553302.0 }, "geometry": { "type": "Point", "coordinates": [ 109.50891, 34.50355 ] } },
{ "type": "Feature", "properties": { "City_name": "Wenchang", "a2020": 356073.0 }, "geometry": { "type": "Point", "coordinates": [ 110.75047, 19.613959 ] } },
{ "type": "Feature", "properties": { "City_name": "Wenling", "a2020": 1037164.0 }, "geometry": { "type": "Point", "coordinates": [ 121.378138, 28.375791 ] } },
{ "type": "Feature", "properties": { "City_name": "Wenzhou", "a2020": 3623646.0 }, "geometry": { "type": "Point", "coordinates": [ 120.66682, 27.99942 ] } },
{ "type": "Feature", "properties": { "City_name": "Wuchuan", "a2020": 348873.0 }, "geometry": { "type": "Point", "coordinates": [ 110.776222, 21.431015 ] } },
{ "type": "Feature", "properties": { "City_name": "Wuhai", "a2020": 630295.0 }, "geometry": { "type": "Point", "coordinates": [ 106.81222, 39.66472 ] } },
{ "type": "Feature", "properties": { "City_name": "Wuhan", "a2020": 8364978.0 }, "geometry": { "type": "Point", "coordinates": [ 114.26667, 30.58333 ] } },
{ "type": "Feature", "properties": { "City_name": "Wuhu, Anhui", "a2020": 1870281.0 }, "geometry": { "type": "Point", "coordinates": [ 118.381175, 31.333557 ] } },
{ "type": "Feature", "properties": { "City_name": "Wulanhaote", "a2020": 335437.0 }, "geometry": { "type": "Point", "coordinates": [ 122.067931, 46.074791 ] } },
{ "type": "Feature", "properties": { "City_name": "Wuwei", "a2020": 399718.0 }, "geometry": { "type": "Point", "coordinates": [ 102.633659, 37.925127 ] } },
{ "type": "Feature", "properties": { "City_name": "Wuxi, Jiangsu", "a2020": 3256020.0 }, "geometry": { "type": "Point", "coordinates": [ 120.298556, 31.536681 ] } },
{ "type": "Feature", "properties": { "City_name": "Wuzhou", "a2020": 696630.0 }, "geometry": { "type": "Point", "coordinates": [ 111.274132, 23.483239 ] } },
{ "type": "Feature", "properties": { "City_name": "Xiamen", "a2020": 3720141.0 }, "geometry": { "type": "Point", "coordinates": [ 118.08187, 24.47979 ] } },
{ "type": "Feature", "properties": { "City_name": "Xi'an, Shaanxi", "a2020": 8000965.0 }, "geometry": { "type": "Point", "coordinates": [ 108.940242, 34.289413 ] } },
{ "type": "Feature", "properties": { "City_name": "Xiangtan, Hunan", "a2020": 1142976.0 }, "geometry": { "type": "Point", "coordinates": [ 112.926952, 27.828265 ] } },
{ "type": "Feature", "properties": { "City_name": "Xiangyang", "a2020": 1657726.0 }, "geometry": { "type": "Point", "coordinates": [ 112.144038, 32.008764 ] } },
{ "type": "Feature", "properties": { "City_name": "Xianning", "a2020": 350448.0 }, "geometry": { "type": "Point", "coordinates": [ 114.330269, 29.835577 ] } },
{ "type": "Feature", "properties": { "City_name": "Xiantao", "a2020": 588540.0 }, "geometry": { "type": "Point", "coordinates": [ 113.448402000000101, 30.371768 ] } },
{ "type": "Feature", "properties": { "City_name": "Xianyang, Shaanxi", "a2020": 715007.0 }, "geometry": { "type": "Point", "coordinates": [ 108.701548, 34.338637 ] } },
{ "type": "Feature", "properties": { "City_name": "Xiaogan", "a2020": 783483.0 }, "geometry": { "type": "Point", "coordinates": [ 113.91746, 30.925566 ] } },
{ "type": "Feature", "properties": { "City_name": "Xinghua", "a2020": 791297.0 }, "geometry": { "type": "Point", "coordinates": [ 119.838732, 32.937332 ] } },
{ "type": "Feature", "properties": { "City_name": "Xingning", "a2020": 487815.0 }, "geometry": { "type": "Point", "coordinates": [ 115.725321, 24.145484 ] } },
{ "type": "Feature", "properties": { "City_name": "Xingping", "a2020": 389645.0 }, "geometry": { "type": "Point", "coordinates": [ 108.48766, 34.301122 ] } },
{ "type": "Feature", "properties": { "City_name": "Xingtai", "a2020": 831175.0 }, "geometry": { "type": "Point", "coordinates": [ 114.49417, 37.06306 ] } },
{ "type": "Feature", "properties": { "City_name": "Xingyang", "a2020": 396961.0 }, "geometry": { "type": "Point", "coordinates": [ 113.383427, 34.791577 ] } },
{ "type": "Feature", "properties": { "City_name": "Xingyi, Guizhou", "a2020": 369672.0 }, "geometry": { "type": "Point", "coordinates": [ 104.898285, 25.09446 ] } },
{ "type": "Feature", "properties": { "City_name": "Xining", "a2020": 1539437.0 }, "geometry": { "type": "Point", "coordinates": [ 101.76667, 36.61667 ] } },
{ "type": "Feature", "properties": { "City_name": "Xinmi", "a2020": 575696.0 }, "geometry": { "type": "Point", "coordinates": [ 113.389003000000116, 34.535524 ] } },
{ "type": "Feature", "properties": { "City_name": "Xintai", "a2020": 936382.0 }, "geometry": { "type": "Point", "coordinates": [ 117.751940000000104, 35.90056 ] } },
{ "type": "Feature", "properties": { "City_name": "Xinxiang", "a2020": 1081031.0 }, "geometry": { "type": "Point", "coordinates": [ 113.901477000000114, 35.298867 ] } },
{ "type": "Feature", "properties": { "City_name": "Xinyang", "a2020": 797369.0 }, "geometry": { "type": "Point", "coordinates": [ 114.074643, 32.128856 ] } },
{ "type": "Feature", "properties": { "City_name": "Xinyi", "a2020": 559613.0 }, "geometry": { "type": "Point", "coordinates": [ 118.343018, 34.366827 ] } },
{ "type": "Feature", "properties": { "City_name": "Xinyi", "a2020": 401139.0 }, "geometry": { "type": "Point", "coordinates": [ 110.938758, 22.358519 ] } },
{ "type": "Feature", "properties": { "City_name": "Xinyu", "a2020": 857567.0 }, "geometry": { "type": "Point", "coordinates": [ 114.93335, 27.80429 ] } },
{ "type": "Feature", "properties": { "City_name": "Xinzheng", "a2020": 443992.0 }, "geometry": { "type": "Point", "coordinates": [ 113.736824, 34.398508 ] } },
{ "type": "Feature", "properties": { "City_name": "Xinzhou", "a2020": 374495.0 }, "geometry": { "type": "Point", "coordinates": [ 112.733107, 38.417329 ] } },
{ "type": "Feature", "properties": { "City_name": "Xiongan", "a2020": 969535.0 }, "geometry": { "type": "Point", "coordinates": [ 116.079, 38.9796 ] } },
{ "type": "Feature", "properties": { "City_name": "Xuancheng", "a2020": 466755.0 }, "geometry": { "type": "Point", "coordinates": [ 118.752396, 30.948973 ] } },
{ "type": "Feature", "properties": { "City_name": "Xuanwei", "a2020": 336549.0 }, "geometry": { "type": "Point", "coordinates": [ 104.101837, 26.228975 ] } },
{ "type": "Feature", "properties": { "City_name": "Xuchang", "a2020": 968135.0 }, "geometry": { "type": "Point", "coordinates": [ 113.81667, 34.01667 ] } },
{ "type": "Feature", "properties": { "City_name": "Xuzhou", "a2020": 2145970.0 }, "geometry": { "type": "Point", "coordinates": [ 117.1866050000001, 34.263685 ] } },
{ "type": "Feature", "properties": { "City_name": "Yaan", "a2020": 360612.0 }, "geometry": { "type": "Point", "coordinates": [ 102.994516, 29.987422 ] } },
{ "type": "Feature", "properties": { "City_name": "Yan'an", "a2020": 678619.0 }, "geometry": { "type": "Point", "coordinates": [ 109.483756, 36.596722 ] } },
{ "type": "Feature", "properties": { "City_name": "Yancheng, Jiangsu", "a2020": 1864424.0 }, "geometry": { "type": "Point", "coordinates": [ 120.155148, 33.356867 ] } },
{ "type": "Feature", "properties": { "City_name": "Yangchun", "a2020": 305114.0 }, "geometry": { "type": "Point", "coordinates": [ 111.789184, 22.170364 ] } },
{ "type": "Feature", "properties": { "City_name": "Yangjiang", "a2020": 890013.0 }, "geometry": { "type": "Point", "coordinates": [ 111.956303, 21.861445 ] } },
{ "type": "Feature", "properties": { "City_name": "Yangquan", "a2020": 794262.0 }, "geometry": { "type": "Point", "coordinates": [ 113.582568, 37.85578 ] } },
{ "type": "Feature", "properties": { "City_name": "Yangzhou", "a2020": 1992773.0 }, "geometry": { "type": "Point", "coordinates": [ 119.423807, 32.391492 ] } },
{ "type": "Feature", "properties": { "City_name": "Yanji", "a2020": 695165.0 }, "geometry": { "type": "Point", "coordinates": [ 129.50778, 42.9075 ] } },
{ "type": "Feature", "properties": { "City_name": "Yanshi", "a2020": 507643.0 }, "geometry": { "type": "Point", "coordinates": [ 112.779926, 34.729344 ] } },
{ "type": "Feature", "properties": { "City_name": "Yantai", "a2020": 2526702.0 }, "geometry": { "type": "Point", "coordinates": [ 121.437152, 37.465087 ] } },
{ "type": "Feature", "properties": { "City_name": "Yibin", "a2020": 814166.0 }, "geometry": { "type": "Point", "coordinates": [ 104.62383, 28.76667 ] } },
{ "type": "Feature", "properties": { "City_name": "Yichang", "a2020": 1548423.0 }, "geometry": { "type": "Point", "coordinates": [ 111.28472, 30.71444 ] } },
{ "type": "Feature", "properties": { "City_name": "Yichun, Heilongjiang", "a2020": 598465.0 }, "geometry": { "type": "Point", "coordinates": [ 128.83367, 47.724475 ] } },
{ "type": "Feature", "properties": { "City_name": "Yichun, Jiangxi", "a2020": 918051.0 }, "geometry": { "type": "Point", "coordinates": [ 114.389221, 27.806158 ] } },
{ "type": "Feature", "properties": { "City_name": "Yinchuan", "a2020": 1579049.0 }, "geometry": { "type": "Point", "coordinates": [ 106.27306, 38.46806 ] } },
{ "type": "Feature", "properties": { "City_name": "Yingde", "a2020": 430821.0 }, "geometry": { "type": "Point", "coordinates": [ 113.405468, 24.197408 ] } },
{ "type": "Feature", "properties": { "City_name": "Yingkou", "a2020": 1214047.0 }, "geometry": { "type": "Point", "coordinates": [ 122.22833, 40.66482 ] } },
{ "type": "Feature", "properties": { "City_name": "Yining", "a2020": 356001.0 }, "geometry": { "type": "Point", "coordinates": [ 81.316125, 43.919634 ] } },
{ "type": "Feature", "properties": { "City_name": "Yiwu", "a2020": 1334356.0 }, "geometry": { "type": "Point", "coordinates": [ 120.07676, 29.31506 ] } },
{ "type": "Feature", "properties": { "City_name": "Yixing", "a2020": 432414.0 }, "geometry": { "type": "Point", "coordinates": [ 119.776306, 31.359926 ] } },
{ "type": "Feature", "properties": { "City_name": "Yiyang, Hunan", "a2020": 558615.0 }, "geometry": { "type": "Point", "coordinates": [ 112.348737, 28.566585 ] } },
{ "type": "Feature", "properties": { "City_name": "Yongcheng", "a2020": 473513.0 }, "geometry": { "type": "Point", "coordinates": [ 116.44338, 33.93177 ] } },
{ "type": "Feature", "properties": { "City_name": "Yongkang", "a2020": 526069.0 }, "geometry": { "type": "Point", "coordinates": [ 120.032761, 28.903339 ] } },
{ "type": "Feature", "properties": { "City_name": "Yongzhou", "a2020": 781940.0 }, "geometry": { "type": "Point", "coordinates": [ 111.606348, 26.435132 ] } },
{ "type": "Feature", "properties": { "City_name": "Yuanjiang", "a2020": 344057.0 }, "geometry": { "type": "Point", "coordinates": [ 112.364162, 28.843025 ] } },
{ "type": "Feature", "properties": { "City_name": "Yueqing", "a2020": 1060702.0 }, "geometry": { "type": "Point", "coordinates": [ 120.9612, 28.1194 ] } },
{ "type": "Feature", "properties": { "City_name": "Yueyang", "a2020": 1009534.0 }, "geometry": { "type": "Point", "coordinates": [ 113.115285, 29.372239 ] } },
{ "type": "Feature", "properties": { "City_name": "Yuhuan", "a2020": 459707.0 }, "geometry": { "type": "Point", "coordinates": [ 121.2318, 28.1359 ] } },
{ "type": "Feature", "properties": { "City_name": "Yulin, Guangxi", "a2020": 613668.0 }, "geometry": { "type": "Point", "coordinates": [ 110.153301, 22.633869 ] } },
{ "type": "Feature", "properties": { "City_name": "Yulin, Shaanxi", "a2020": 695614.0 }, "geometry": { "type": "Point", "coordinates": [ 109.731486, 38.28384 ] } },
{ "type": "Feature", "properties": { "City_name": "Yuncheng", "a2020": 675082.0 }, "geometry": { "type": "Point", "coordinates": [ 110.99278, 35.02306 ] } },
{ "type": "Feature", "properties": { "City_name": "Yunfu", "a2020": 359668.0 }, "geometry": { "type": "Point", "coordinates": [ 112.0373, 22.93056 ] } },
{ "type": "Feature", "properties": { "City_name": "Yushu", "a2020": 356496.0 }, "geometry": { "type": "Point", "coordinates": [ 126.551011, 44.824348 ] } },
{ "type": "Feature", "properties": { "City_name": "Yuxi", "a2020": 662863.0 }, "geometry": { "type": "Point", "coordinates": [ 102.539544, 24.3567 ] } },
{ "type": "Feature", "properties": { "City_name": "Yuyao", "a2020": 678841.0 }, "geometry": { "type": "Point", "coordinates": [ 121.15306, 30.042582 ] } },
{ "type": "Feature", "properties": { "City_name": "Zaoyang", "a2020": 562379.0 }, "geometry": { "type": "Point", "coordinates": [ 112.75417, 32.12722 ] } },
{ "type": "Feature", "properties": { "City_name": "Zaozhuang", "a2020": 1087745.0 }, "geometry": { "type": "Point", "coordinates": [ 117.554170000000113, 34.86472 ] } },
{ "type": "Feature", "properties": { "City_name": "Zhangjiagang", "a2020": 656036.0 }, "geometry": { "type": "Point", "coordinates": [ 120.53889, 31.865 ] } },
{ "type": "Feature", "properties": { "City_name": "Zhangjiakou", "a2020": 1434649.0 }, "geometry": { "type": "Point", "coordinates": [ 114.87944, 40.81 ] } },
{ "type": "Feature", "properties": { "City_name": "Zhangshu", "a2020": 328338.0 }, "geometry": { "type": "Point", "coordinates": [ 115.54734, 28.065951 ] } },
{ "type": "Feature", "properties": { "City_name": "Zhangye", "a2020": 442604.0 }, "geometry": { "type": "Point", "coordinates": [ 100.45167, 38.93417 ] } },
{ "type": "Feature", "properties": { "City_name": "Zhangzhou", "a2020": 871690.0 }, "geometry": { "type": "Point", "coordinates": [ 117.6556, 24.5133 ] } },
{ "type": "Feature", "properties": { "City_name": "Zhanjiang", "a2020": 1286854.0 }, "geometry": { "type": "Point", "coordinates": [ 110.359639, 21.266159 ] } },
{ "type": "Feature", "properties": { "City_name": "Zhaodong", "a2020": 550240.0 }, "geometry": { "type": "Point", "coordinates": [ 125.989643000000115, 46.066829 ] } },
{ "type": "Feature", "properties": { "City_name": "Zhaoqing", "a2020": 1023777.0 }, "geometry": { "type": "Point", "coordinates": [ 112.45972, 23.05116 ] } },
{ "type": "Feature", "properties": { "City_name": "Zhaotong", "a2020": 338946.0 }, "geometry": { "type": "Point", "coordinates": [ 103.718884, 27.336322 ] } },
{ "type": "Feature", "properties": { "City_name": "Zhaoyuan", "a2020": 347664.0 }, "geometry": { "type": "Point", "coordinates": [ 120.39639000000011, 37.35917 ] } },
{ "type": "Feature", "properties": { "City_name": "Zhengzhou", "a2020": 5322696.0 }, "geometry": { "type": "Point", "coordinates": [ 113.64861, 34.75778 ] } },
{ "type": "Feature", "properties": { "City_name": "Zhenjiang, Jiangsu", "a2020": 1173816.0 }, "geometry": { "type": "Point", "coordinates": [ 119.448940000000107, 32.202713 ] } },
{ "type": "Feature", "properties": { "City_name": "Zhongshan", "a2020": 2913974.0 }, "geometry": { "type": "Point", "coordinates": [ 113.383938, 22.517992 ] } },
{ "type": "Feature", "properties": { "City_name": "Zhongxiang", "a2020": 491713.0 }, "geometry": { "type": "Point", "coordinates": [ 112.58306, 31.16611 ] } },
{ "type": "Feature", "properties": { "City_name": "Zhoukou", "a2020": 650060.0 }, "geometry": { "type": "Point", "coordinates": [ 114.646126, 33.617368 ] } },
{ "type": "Feature", "properties": { "City_name": "Zhoushan", "a2020": 647419.0 }, "geometry": { "type": "Point", "coordinates": [ 122.213475, 29.988548 ] } },
{ "type": "Feature", "properties": { "City_name": "Zhuanghe", "a2020": 465761.0 }, "geometry": { "type": "Point", "coordinates": [ 122.968765, 39.705122 ] } },
{ "type": "Feature", "properties": { "City_name": "Zhucheng", "a2020": 891494.0 }, "geometry": { "type": "Point", "coordinates": [ 119.3975, 35.99472 ] } },
{ "type": "Feature", "properties": { "City_name": "Zhuhai", "a2020": 1759378.0 }, "geometry": { "type": "Point", "coordinates": [ 113.5678, 22.2769 ] } },
{ "type": "Feature", "properties": { "City_name": "Zhuji", "a2020": 777536.0 }, "geometry": { "type": "Point", "coordinates": [ 120.236819, 29.713158 ] } },
{ "type": "Feature", "properties": { "City_name": "Zhumadian", "a2020": 716002.0 }, "geometry": { "type": "Point", "coordinates": [ 114.02944, 32.97944 ] } },
{ "type": "Feature", "properties": { "City_name": "Zhuozhou", "a2020": 355461.0 }, "geometry": { "type": "Point", "coordinates": [ 115.978268, 39.484559 ] } },
{ "type": "Feature", "properties": { "City_name": "Zhuzhou", "a2020": 1186912.0 }, "geometry": { "type": "Point", "coordinates": [ 113.15, 27.83333 ] } },
{ "type": "Feature", "properties": { "City_name": "Zibo", "a2020": 2639735.0 }, "geometry": { "type": "Point", "coordinates": [ 118.06333, 36.79056 ] } },
{ "type": "Feature", "properties": { "City_name": "Zigong", "a2020": 737291.0 }, "geometry": { "type": "Point", "coordinates": [ 104.77689, 29.34162 ] } },
{ "type": "Feature", "properties": { "City_name": "Zixing", "a2020": 330483.0 }, "geometry": { "type": "Point", "coordinates": [ 113.231897000000117, 25.976205 ] } },
{ "type": "Feature", "properties": { "City_name": "Ziyang", "a2020": 500094.0 }, "geometry": { "type": "Point", "coordinates": [ 104.630483, 30.12563 ] } },
{ "type": "Feature", "properties": { "City_name": "Zunyi", "a2020": 1280960.0 }, "geometry": { "type": "Point", "coordinates": [ 106.936512, 27.711309 ] } },
{ "type": "Feature", "properties": { "City_name": "Hong Kong", "a2020": 7547652.0 }, "geometry": { "type": "Point", "coordinates": [ 114.188697, 22.279588 ] } },
{ "type": "Feature", "properties": { "City_name": "Macao", "a2020": 651875.0 }, "geometry": { "type": "Point", "coordinates": [ 113.546110000000112, 22.20056 ] } },
{ "type": "Feature", "properties": { "City_name": "Gaoxiong", "a2020": 1537640.0 }, "geometry": { "type": "Point", "coordinates": [ 120.31546, 22.625962 ] } },
{ "type": "Feature", "properties": { "City_name": "Jilong", "a2020": 368947.0 }, "geometry": { "type": "Point", "coordinates": [ 121.736127, 25.130874 ] } },
{ "type": "Feature", "properties": { "City_name": "Taibei", "a2020": 2721485.0 }, "geometry": { "type": "Point", "coordinates": [ 121.54568, 25.047009 ] } },
{ "type": "Feature", "properties": { "City_name": "Tainan", "a2020": 849996.0 }, "geometry": { "type": "Point", "coordinates": [ 120.259004000000118, 23.131587 ] } },
{ "type": "Feature", "properties": { "City_name": "Taizhong", "a2020": 1320591.0 }, "geometry": { "type": "Point", "coordinates": [ 120.67274, 24.141613 ] } },
{ "type": "Feature", "properties": { "City_name": "Taoyuan", "a2020": 2245162.0 }, "geometry": { "type": "Point", "coordinates": [ 121.2969, 24.9936 ] } },
{ "type": "Feature", "properties": { "City_name": "Xinbei", "a2020": 4398383.0 }, "geometry": { "type": "Point", "coordinates": [ 121.4621, 25.0121 ] } },
{ "type": "Feature", "properties": { "City_name": "Xinzhu", "a2020": 450520.0 }, "geometry": { "type": "Point", "coordinates": [ 120.9686, 24.8036 ] } },
{ "type": "Feature", "properties": { "City_name": "Armenia", "a2020": 410130.0 }, "geometry": { "type": "Point", "coordinates": [ -75.68111, 4.53389 ] } },
{ "type": "Feature", "properties": { "City_name": "Barranquilla", "a2020": 2272914.0 }, "geometry": { "type": "Point", "coordinates": [ -74.79639, 10.96389 ] } },
{ "type": "Feature", "properties": { "City_name": "Bogotá", "a2020": 10978360.0 }, "geometry": { "type": "Point", "coordinates": [ -74.08175, 4.60971 ] } },
{ "type": "Feature", "properties": { "City_name": "Bucaramanga", "a2020": 1331453.0 }, "geometry": { "type": "Point", "coordinates": [ -73.1198, 7.12539 ] } },
{ "type": "Feature", "properties": { "City_name": "Buenaventura", "a2020": 451498.0 }, "geometry": { "type": "Point", "coordinates": [ -77.07001, 3.885028 ] } },
{ "type": "Feature", "properties": { "City_name": "Cali", "a2020": 2781980.0 },